Census_Tract,County,State,State_Abbr,Resilience_Score,Health_Burden,Urban_Rural,Population_2010,Poverty_Rate,Median_Income,GEOID,latitude,longitude
47149041500,Rutherford County,Tennessee,TN,4.75,-2.105,Urban,2966,35.7,,47149041500,35.8484394,-86.3622605
45077011202,Pickens County,South Carolina,SC,4.413,-1.99,Urban,5694,48.6,84250.0,45077011202,34.646482,-82.8300268
45013001000,Beaufort County,South Carolina,SC,4.319,-1.959,Urban,4469,1.1,52721.0,45013001000,32.3175972,-80.6822133
26107981300,Mecosta County,Michigan,MI,4.235,-1.952,Urban,2216,100.0,,26107981300,43.6862822,-85.4805335
21227010400,Warren County,Kentucky,KY,4.216,-1.673,Urban,4822,48.3,135000.0,21227010400,36.9840917,-86.4557721
26125192800,Oakland County,Michigan,MI,4.194,-1.921,Urban,2200,27.7,96563.0,26125192800,42.6686933,-83.2069003
28071950301,Lafayette County,Mississippi,MS,4.189,-1.485,Urban,5801,60.8,34728.0,28071950301,34.3618445,-89.5462135
48451001500,Tom Green County,Texas,TX,4.139,-1.932,Urban,2249,0.0,44722.0,48451001500,31.4318307,-100.4045385
26161402200,Washtenaw County,Michigan,MI,4.083,-1.841,Urban,4749,64.7,39500.0,26161402200,42.2888623,-83.7160474
18003980001,Allen County,Indiana,IN,4.048,-1.816,Urban,664,43.8,,18003980001,41.1180614,-85.1101678
22115950703,Vernon Parish,Louisiana,LA,4.026,-1.528,Urban,2864,4.9,36188.0,22115950703,31.0996085,-93.2020875
6085511608,Santa Clara County,California,CA,4.012,-2.352,Urban,2687,29.3,,06085511608,37.4292567,-122.1772178
21151010500,Madison County,Kentucky,KY,3.994,-1.57,Urban,4182,69.0,,21151010500,37.7377246,-84.2975066
18157005500,Tippecanoe County,Indiana,IN,3.987,-1.72,Urban,4486,78.2,6932.0,18157005500,40.4182759,-86.9121404
45019003200,Charleston County,South Carolina,SC,3.971,-1.749,Urban,871,9.5,47857.0,45019003200,32.8989988,-80.0497394
36109000400,Tompkins County,New York,NY,3.97,-2.093,Urban,4162,30.4,41563.0,36109000400,42.4571996,-76.4587153
18105000201,Monroe County,Indiana,IN,3.967,-1.728,Urban,6924,67.1,20156.0,18105000201,39.1790308,-86.5158924
48453000601,Travis County,Texas,TX,3.942,-1.814,Urban,9207,65.3,45156.0,48453000601,30.2874117,-97.7380441
29101980000,Johnson County,Missouri,MO,3.914,-1.728,Urban,1410,5.6,48199.0,29101980000,38.733116,-93.5531578
45015020725,Berkeley County,South Carolina,SC,3.897,-1.706,Urban,1055,6.6,45795.0,45015020725,32.9689219,-79.9853268
36109001200,Tompkins County,New York,NY,3.877,-2.038,Urban,3372,50.7,,36109001200,42.4217242,-76.4921665
18157005400,Tippecanoe County,Indiana,IN,3.866,-1.648,Urban,6310,76.1,,18157005400,40.4265027,-86.9095857
37133000800,Onslow County,North Carolina,NC,3.861,-1.815,Urban,1121,5.0,43005.0,37133000800,34.7280872,-77.3391348
39095010400,Lucas County,Ohio,OH,3.836,-1.415,Urban,3981,58.2,,39095010400,41.6580314,-83.6150459
39009973901,Athens County,Ohio,OH,3.806,-1.43,Urban,6462,81.3,,39009973901,39.3236725,-82.0970187
29169470389,Pulaski County,Missouri,MO,3.795,-1.631,Urban,8245,7.7,44226.0,29169470389,37.7562341,-92.1291409
26077001504,Kalamazoo County,Michigan,MI,3.775,-1.69,Urban,5206,49.3,118906.0,26077001504,42.2833006,-85.6114233
25015820600,Hampshire County,Massachusetts,MA,3.769,-2.286,Urban,1681,26.6,,25015820600,42.3712298,-72.5103072
37051003407,Cumberland County,North Carolina,NC,3.762,-1.787,Urban,2316,13.8,50417.0,37051003407,35.1219065,-78.9826343
51810040000,Virginia Beach city,Virginia,VA,3.75,-1.734,Urban,3976,6.7,63224.0,51810040000,36.9153965,-76.1630264
44009051400,Washington County,Rhode Island,RI,3.745,-2.033,Urban,5677,46.1,,44009051400,41.4921949,-71.5273227
6087100400,Santa Cruz County,California,CA,3.731,-2.183,Urban,7331,27.6,51500.0,06087100400,36.9911069,-122.0590223
39173021800,Wood County,Ohio,OH,3.659,-1.279,Urban,5215,61.0,,39173021800,41.379731,-83.6295647
37049961201,Craven County,North Carolina,NC,3.655,-1.724,Urban,4095,8.8,40893.0,37049961201,34.9371448,-76.9171446
37133001000,Onslow County,North Carolina,NC,3.655,-1.691,Urban,4455,19.8,39688.0,37133001000,34.711011,-77.4502568
40119010400,Payne County,Oklahoma,OK,3.648,-1.339,Urban,6372,59.7,25813.0,40119010400,36.1259719,-97.0757226
29019002200,Boone County,Missouri,MO,3.636,-1.594,Urban,6753,57.9,34583.0,29019002200,38.9379959,-92.3211071
36029009110,Erie County,New York,NY,3.633,-1.922,Urban,5737,71.4,,36029009110,43.0028095,-78.7816585
6095252802,Solano County,California,CA,3.595,-2.099,Urban,1359,11.5,56953.0,06095252802,38.2715815,-121.9466635
26161415200,Washtenaw County,Michigan,MI,3.592,-1.547,Urban,1746,12.1,60893.0,26161415200,42.2183889,-83.6749883
20161000303,Riley County,Kansas,KS,3.59,-1.58,Urban,2642,58.9,37639.0,20161000303,39.193927,-96.5903787
18157010300,Tippecanoe County,Indiana,IN,3.586,-1.481,Urban,3365,82.0,,18157010300,40.4351778,-86.9253803
20161001002,Riley County,Kansas,KS,3.583,-1.576,Urban,8445,4.9,43038.0,20161001002,39.1114347,-96.7805555
37133000900,Onslow County,North Carolina,NC,3.579,-1.646,Urban,6120,8.8,34905.0,37133000900,34.7348039,-77.39805
4013061100,Maricopa County,Arizona,AZ,3.573,-1.908,Urban,3436,5.7,52935.0,04013061100,33.5360482,-112.3733796
36055015301,Monroe County,New York,NY,3.559,-1.869,Urban,2919,29.7,114375.0,36055015301,43.204848,-77.9609087
18141011202,St. Joseph County,Indiana,IN,3.55,-1.465,Urban,8050,50.4,51250.0,18141011202,41.7014028,-86.2479778
18035000902,Delaware County,Indiana,IN,3.542,-1.501,Urban,6863,78.9,,18035000902,40.2025512,-85.4051261
39017010104,Butler County,Ohio,OH,3.537,-1.267,Urban,5265,87.3,,39017010104,39.5070402,-84.7345237
54061012000,Monongalia County,West Virginia,WV,3.527,-0.902,Urban,5471,20.0,103359.0,54061012000,39.6569636,-79.9675412
36013035902,Chautauqua County,New York,NY,3.525,-1.864,Urban,2770,42.6,,36013035902,42.4524985,-79.339692
1081040604,Lee County,Alabama,AL,3.518,-1.105,Urban,5146,52.8,44063.0,01081040604,32.5690428,-85.5297175
46093020200,Meade County,South Dakota,SD,3.482,-1.746,Urban,1192,14.6,53958.0,46093020200,44.1594074,-103.1009594
37191000500,Wayne County,North Carolina,NC,3.473,-1.56,Urban,2325,7.9,51651.0,37191000500,35.3479164,-77.9625752
17097863003,Lake County,Illinois,IL,3.464,-1.714,Urban,7829,50.6,55795.0,17097863003,42.313954,-87.8308368
13039010500,Camden County,Georgia,GA,3.437,-1.582,Urban,2757,17.3,51094.0,13039010500,30.8023621,-81.5278537
13089022402,DeKalb County,Georgia,GA,3.435,-1.562,Urban,5823,40.0,124375.0,13089022402,33.7981091,-84.3224275
26139024500,Ottawa County,Michigan,MI,3.429,-1.459,Urban,9512,75.3,,26139024500,42.9679066,-85.8978952
39009973902,Athens County,Ohio,OH,3.426,-1.203,Urban,3494,77.4,43000.0,39009973902,39.3317087,-82.0925802
22033004014,East Baton Rouge Parish,Louisiana,LA,3.424,-1.201,Urban,10391,60.1,,22033004014,30.3659897,-91.2030341
4013318700,Maricopa County,Arizona,AZ,3.414,-1.813,Urban,2675,42.5,125625.0,04013318700,33.4287353,-111.9349179
22115950702,Vernon Parish,Louisiana,LA,3.414,-1.163,Urban,3530,12.2,42743.0,22115950702,31.0431846,-93.2274727
45013000300,Beaufort County,South Carolina,SC,3.408,-1.415,Urban,4850,6.4,44112.0,45013000300,32.4676898,-80.7840865
13059000402,Clarke County,Georgia,GA,3.404,-1.554,Urban,7090,91.2,,13059000402,33.9481338,-83.3754635
48041002012,Brazos County,Texas,TX,3.37,-1.632,Urban,6466,71.9,,48041002012,30.5988888,-96.3467825
48141010102,El Paso County,Texas,TX,3.346,-1.579,Urban,4799,20.4,48326.0,48141010102,31.8166019,-106.418964
36055013103,Monroe County,New York,NY,3.337,-1.736,Urban,7367,37.6,118654.0,36055013103,43.0798676,-77.6788655
13059150400,Clarke County,Georgia,GA,3.336,-1.514,Urban,4934,64.6,36974.0,13059150400,33.9069629,-83.3695606
21111005300,Jefferson County,Kentucky,KY,3.333,-1.191,Urban,2180,50.5,26618.0,21111005300,38.2181298,-85.7574304
38101010900,Ward County,North Dakota,ND,3.332,-1.581,Urban,5521,7.3,53778.0,38101010900,48.4190017,-101.3365027
39057200104,Greene County,Ohio,OH,3.33,-1.128,Urban,6615,46.5,48792.0,39057200104,39.8295329,-84.0886394
40027201203,Cleveland County,Oklahoma,OK,3.326,-1.182,Urban,5396,28.1,67621.0,40027201203,35.1768253,-97.4335011
37183052301,Wake County,North Carolina,NC,3.315,-1.469,Urban,6024,34.4,54728.0,37183052301,35.7571349,-78.7042883
9013881200,Tolland County,Connecticut,CT,3.313,-1.829,Urban,10289,49.9,146563.0,09013881200,41.8089228,-72.2515869
38017000300,Cass County,North Dakota,ND,3.302,-1.596,Urban,5013,35.3,131406.0,38017000300,46.9307423,-96.8236083
54061010600,Monongalia County,West Virginia,WV,3.302,-0.768,Urban,6179,37.4,91842.0,54061010600,39.6579885,-79.9433578
5143010701,Washington County,Arkansas,AR,3.298,-1.092,Urban,6604,43.8,26636.0,05143010701,36.0948338,-94.1706722
19169000500,Story County,Iowa,IA,3.288,-1.592,Urban,3105,69.9,26250.0,19169000500,42.0352687,-93.6397633
35035000601,Otero County,New Mexico,NM,3.284,-1.608,Urban,3113,10.8,46559.0,35035000601,32.6597228,-106.1729054
13179010103,Liberty County,Georgia,GA,3.273,-1.43,Urban,866,4.1,38494.0,13179010103,31.8763929,-81.5986689
48041001701,Brazos County,Texas,TX,3.259,-1.565,Urban,5762,45.8,46607.0,48041001701,30.618071,-96.30657
48441012900,Taylor County,Texas,TX,3.257,-1.41,Urban,2242,9.6,52656.0,48441012900,32.4197423,-99.8205423
18157010500,Tippecanoe County,Indiana,IN,3.253,-1.281,Urban,2021,43.5,26438.0,18157010500,40.4209118,-86.9266399
22115950704,Vernon Parish,Louisiana,LA,3.24,-1.059,Urban,3571,25.5,46353.0,22115950704,31.0644808,-93.2276371
34005982111,Burlington County,New Jersey,NJ,3.233,-1.757,Urban,823,4.6,65625.0,34005982111,40.020342,-74.5902378
4027980006,Yuma County,Arizona,AZ,3.233,-1.699,Urban,3172,12.1,40279.0,04027980006,32.6458708,-114.6012703
48029980003,Bexar County,Texas,TX,3.232,-1.553,Urban,1802,10.9,55208.0,48029980003,29.3724905,-98.666017
51710000902,Norfolk city,Virginia,VA,3.222,-1.457,Urban,3541,7.2,44205.0,51710000902,36.9372397,-76.3092149
25015820400,Hampshire County,Massachusetts,MA,3.22,-1.958,Urban,12079,65.5,89500.0,25015820400,42.3888737,-72.526061
51750010102,Radford city,Virginia,VA,3.211,-1.435,Urban,5672,49.2,100446.0,51750010102,37.1399962,-80.5184643
25025000502,Suffolk County,Massachusetts,MA,3.196,-1.94,Urban,6303,23.4,118264.0,25025000502,42.3315048,-71.1574973
40031002403,Comanche County,Oklahoma,OK,3.19,-1.099,Urban,4308,26.6,38250.0,40031002403,34.7019859,-98.3226148
1015002101,Calhoun County,Alabama,AL,3.177,-0.926,Urban,3992,47.6,52500.0,01015002101,33.8370579,-85.772778
51540000600,Charlottesville city,Virginia,VA,3.176,-1.496,Urban,4351,63.2,25875.0,51540000600,38.0284141,-78.5109364
19013002303,Black Hawk County,Iowa,IA,3.169,-1.581,Urban,5142,57.2,63958.0,19013002303,42.5149832,-92.4607823
48027023204,Bell County,Texas,TX,3.162,-1.513,Urban,4486,15.3,42917.0,48027023204,31.1376057,-97.6690787
13051004300,Chatham County,Georgia,GA,3.159,-1.411,Urban,2615,18.1,45240.0,13051004300,32.0155607,-81.14483
48029980100,Bexar County,Texas,TX,3.149,-1.504,Urban,301,26.3,41250.0,48029980100,29.3897891,-98.582398
48201314002,Harris County,Texas,TX,3.148,-1.437,Urban,7544,20.2,50718.0,48201314002,29.6879699,-95.3974591
45079002800,Richland County,South Carolina,SC,3.126,-1.221,Urban,6455,51.5,64519.0,45079002800,33.9821485,-81.0333383
26037011200,Clinton County,Michigan,MI,3.125,-1.317,Urban,3321,74.7,,26037011200,42.7726886,-84.4867896
48121021000,Denton County,Texas,TX,3.122,-1.453,Urban,5724,36.6,40811.0,48121021000,33.2055723,-97.1468666
48355002900,Nueces County,Texas,TX,3.117,-1.359,Urban,798,1.1,55313.0,48355002900,27.6896406,-97.2725261
38035011900,Grand Forks County,North Dakota,ND,3.109,-1.473,Urban,2367,6.1,54173.0,38035011900,47.9556796,-97.3912796
29169470390,Pulaski County,Missouri,MO,3.103,-1.218,Urban,1472,9.9,51641.0,29169470390,37.7824305,-92.1161516
19169000800,Story County,Iowa,IA,3.102,-1.48,Urban,5128,100.0,,19169000800,42.0268643,-93.6457802
30013001200,Cascade County,Montana,MT,3.098,-1.713,Urban,3472,2.9,50278.0,30013001200,47.5043924,-111.1767181
16039960500,Elmore County,Idaho,ID,3.097,-1.623,Urban,3238,7.4,43359.0,16039960500,43.0491862,-115.8658595
6083002606,Santa Barbara County,California,CA,3.091,-1.802,Urban,3344,2.8,64348.0,06083002606,34.7122846,-120.5566535
1117030407,Shelby County,Alabama,AL,3.09,-0.835,Urban,1954,38.2,42131.0,01117030407,33.131697,-86.8475678
6031000300,Kings County,California,CA,3.089,-1.821,Urban,7446,9.4,52324.0,06031000300,36.3051812,-119.9245603
18097321900,Marion County,Indiana,IN,3.085,-1.204,Urban,5861,21.3,143750.0,18097321900,39.8398299,-86.1645123
37051003405,Cumberland County,North Carolina,NC,3.083,-1.382,Urban,1975,17.0,35051.0,37051003405,35.1314119,-79.0085229
26073000400,Isabella County,Michigan,MI,3.077,-1.274,Urban,5884,30.8,82708.0,26073000400,43.5754081,-84.8170626
26065004100,Ingham County,Michigan,MI,3.072,-1.274,Urban,4781,75.9,,26065004100,42.7366639,-84.4829516
51810043200,Virginia Beach city,Virginia,VA,3.071,-1.328,Urban,1134,9.0,63456.0,51810043200,36.9045704,-76.0172855
48029181820,Bexar County,Texas,TX,3.063,-1.453,Urban,7202,47.4,64643.0,48029181820,29.5775882,-98.616121
17037002200,DeKalb County,Illinois,IL,3.063,-1.498,Urban,6016,71.0,61250.0,17037002200,41.9344833,-88.7680555
38035010300,Grand Forks County,North Dakota,ND,3.061,-1.445,Urban,5212,54.0,31170.0,38035010300,47.9232816,-97.0730082
4013522800,Maricopa County,Arizona,AZ,3.038,-1.588,Urban,1685,28.7,45508.0,04013522800,33.305743,-111.6550857
19103002300,Johnson County,Iowa,IA,3.037,-1.467,Urban,4510,38.1,115795.0,19103002300,41.6658768,-91.5469903
48309000200,McLennan County,Texas,TX,3.036,-1.328,Urban,3579,72.5,26175.0,48309000200,31.5470174,-97.0990524
21047201502,Christian County,Kentucky,KY,3.026,-1.032,Urban,4527,14.7,38320.0,21047201502,36.6516426,-87.4493742
37067001300,Forsyth County,North Carolina,NC,3.025,-1.341,Urban,4535,25.0,102813.0,37067001300,36.1296874,-80.2770425
29019001101,Boone County,Missouri,MO,3.024,-1.229,Urban,8628,49.9,42798.0,29019001101,38.9049809,-92.3090416
36111953500,Ulster County,New York,NY,3.022,-1.526,Urban,5180,38.0,92173.0,36111953500,41.7367894,-74.0875348
15003009503,Honolulu County,Hawaii,HI,3.021,-2.009,Urban,3403,2.5,71250.0,15003009503,21.4884974,-158.0544437
24003740603,Anne Arundel County,Maryland,MD,3.018,-1.467,Urban,1730,2.8,64917.0,24003740603,39.065069,-76.7566355
51810045200,Virginia Beach city,Virginia,VA,3.017,-1.297,Urban,3734,8.7,52667.0,51810045200,36.7964783,-75.9745704
17029000800,Coles County,Illinois,IL,3.005,-1.466,Urban,5675,58.2,58750.0,17029000800,39.4771737,-88.1760216
39153508900,Summit County,Ohio,OH,2.994,-0.89,Urban,5255,63.6,,39153508900,41.0772923,-81.5058328
1087231700,Macon County,Alabama,AL,2.986,-0.784,Urban,2113,35.5,,01087231700,32.4334728,-85.712429
34005702101,Burlington County,New Jersey,NJ,2.97,-1.601,Urban,2887,3.4,71016.0,34005702101,40.050251,-74.584714
39049004300,Franklin County,Ohio,OH,2.967,-0.914,Urban,5613,21.0,74118.0,39049004300,39.9710998,-83.0502723
6111004305,Ventura County,California,CA,2.965,-1.716,Urban,2388,13.3,52188.0,06111004305,34.1621779,-119.2067537
29101960400,Johnson County,Missouri,MO,2.96,-1.158,Urban,6551,47.5,45170.0,29101960400,38.7485606,-93.7481106
16057005400,Latah County,Idaho,ID,2.958,-1.533,Urban,6435,31.3,68906.0,16057005400,46.678717,-116.9812516
6073008339,San Diego County,California,CA,2.955,-1.725,Urban,1853,41.3,103056.0,06073008339,32.9030498,-117.2324729
13059150500,Clarke County,Georgia,GA,2.954,-1.286,Urban,4741,52.5,43806.0,13059150500,33.9253865,-83.3509708
31153010306,Sarpy County,Nebraska,NE,2.952,-1.406,Urban,1878,6.1,62179.0,31153010306,41.1249712,-95.9610156
17113000200,McLean County,Illinois,IL,2.943,-1.397,Urban,7036,90.1,,17113000200,40.5106608,-88.9939396
15003010802,Honolulu County,Hawaii,HI,2.928,-1.953,Urban,6548,3.6,75694.0,15003010802,21.4473464,-157.737
15003009507,Honolulu County,Hawaii,HI,2.927,-1.952,Urban,2560,3.8,50402.0,15003009507,21.5016642,-158.0637886
37129011903,New Hanover County,North Carolina,NC,2.911,-1.249,Urban,8514,43.4,73646.0,37129011903,34.2298675,-77.8595338
51760041200,Richmond city,Virginia,VA,2.909,-1.251,Urban,1179,31.7,76667.0,51760041200,37.5390892,-77.4512248
13059000100,Clarke County,Georgia,GA,2.909,-1.259,Urban,1596,84.9,,13059000100,33.9601681,-83.3742173
37051003408,Cumberland County,North Carolina,NC,2.906,-1.276,Urban,4725,12.2,41188.0,37051003408,35.1352263,-78.9638524
51710000901,Norfolk city,Virginia,VA,2.894,-1.262,Urban,5472,16.8,45298.0,51710000901,36.9249642,-76.2995017
39009973000,Athens County,Ohio,OH,2.894,-0.885,Urban,3614,21.1,98582.0,39009973000,39.3439197,-82.0902623
53035090300,Kitsap County,Washington,WA,2.894,-1.78,Urban,6054,11.2,55409.0,53035090300,47.7245503,-122.7160114
20161001100,Riley County,Kansas,KS,2.893,-1.164,Urban,8616,34.2,76875.0,20161001100,39.2069086,-96.593237
36045060803,Jefferson County,New York,NY,2.892,-1.474,Urban,5831,12.5,42827.0,36045060803,44.054051,-75.8006743
28071950202,Lafayette County,Mississippi,MS,2.883,-0.705,Urban,4795,27.0,76484.0,28071950202,34.3518739,-89.5219973
19169001100,Story County,Iowa,IA,2.883,-1.35,Urban,6197,51.0,105179.0,19169001100,42.0128435,-93.6441195
21047201501,Christian County,Kentucky,KY,2.883,-0.946,Urban,5315,14.4,39647.0,21047201501,36.6666769,-87.4638064
11001007301,District of Columbia,District of Columbia,DC,2.879,-1.842,Urban,3012,5.4,87367.0,11001007301,38.834928,-77.024445
18157010204,Tippecanoe County,Indiana,IN,2.873,-1.055,Urban,12230,32.3,71896.0,18157010204,40.4492884,-86.9553609
36007014302,Broome County,New York,NY,2.865,-1.472,Urban,9094,31.5,88581.0,36007014302,42.0847623,-75.9677373
15003010801,Honolulu County,Hawaii,HI,2.853,-1.908,Urban,2969,9.0,51918.0,15003010801,21.4483864,-157.7625515
37051003401,Cumberland County,North Carolina,NC,2.848,-1.242,Urban,3936,12.0,43398.0,37051003401,35.174034,-79.006925
55139000700,Winnebago County,Wisconsin,WI,2.839,-1.431,Urban,5503,66.1,58750.0,55139000700,44.0265143,-88.5502411
51700032300,Newport News city,Virginia,VA,2.834,-1.229,Urban,5720,11.3,52891.0,51700032300,37.1191479,-76.5931829
19169001301,Story County,Iowa,IA,2.832,-1.319,Urban,9427,44.2,81346.0,19169001301,42.0165367,-93.6739731
17037001002,DeKalb County,Illinois,IL,2.829,-1.358,Urban,5782,58.7,26833.0,17037001002,41.9407063,-88.7853067
13179010101,Liberty County,Georgia,GA,2.817,-1.158,Urban,6221,12.8,39197.0,13179010101,31.9400649,-81.5681577
37051003403,Cumberland County,North Carolina,NC,2.815,-1.221,Urban,3618,11.0,38983.0,37051003403,35.1410519,-79.0175892
48439122300,Tarrant County,Texas,TX,2.815,-1.146,Urban,4112,51.0,35625.0,48439122300,32.7329728,-97.1098417
20161000304,Riley County,Kansas,KS,2.812,-1.116,Urban,5013,25.8,90282.0,20161000304,39.1950445,-96.6022005
26161403600,Washtenaw County,Michigan,MI,2.811,-1.081,Urban,4946,31.5,78750.0,26161403600,42.3120965,-83.7147316
13053020203,Chattahoochee County,Georgia,GA,2.806,-1.2,Urban,1141,10.2,46875.0,13053020203,32.3197419,-84.8778674
20173006600,Sedgwick County,Kansas,KS,2.804,-1.106,Urban,2698,14.6,53917.0,20173006600,37.6198907,-97.2689864
6071010402,San Bernardino County,California,CA,2.803,-1.635,Urban,8442,11.7,40975.0,06071010402,34.459264,-116.1380782
5115951400,Pope County,Arkansas,AR,2.8,-0.805,Urban,4903,27.4,34410.0,05115951400,35.3134136,-93.1620428
20045000801,Douglas County,Kansas,KS,2.799,-1.153,Urban,5498,20.5,85474.0,20045000801,38.9319889,-95.3005521
20161000500,Riley County,Kansas,KS,2.791,-1.103,Urban,4968,63.9,59236.0,20161000500,39.195573,-96.5693657
13053020205,Chattahoochee County,Georgia,GA,2.785,-1.187,Urban,2919,13.2,47500.0,13053020205,32.366856,-84.939564
48201313900,Harris County,Texas,TX,2.783,-1.219,Urban,4495,20.6,74722.0,48201313900,29.6919207,-95.3838935
1081040902,Lee County,Alabama,AL,2.778,-0.663,Urban,5201,42.9,59576.0,01081040902,32.6207235,-85.468112
48041001605,Brazos County,Texas,TX,2.774,-1.275,Urban,3367,34.9,56792.0,48041001605,30.5976885,-96.3256864
37133000700,Onslow County,North Carolina,NC,2.773,-1.165,Urban,5176,11.0,49094.0,37133000700,34.7050581,-77.3696373
26077001507,Kalamazoo County,Michigan,MI,2.772,-1.091,Urban,6060,63.3,26763.0,26077001507,42.2751166,-85.6326143
2090001800,Fairbanks North Star Borough,Alaska,AK,2.769,-1.722,Urban,2743,4.1,64018.0,02090001800,64.6760436,-146.5481586
48121020900,Denton County,Texas,TX,2.756,-1.234,Urban,4644,41.7,38750.0,48121020900,33.2021001,-97.1584476
1081040200,Lee County,Alabama,AL,2.753,-0.648,Urban,5133,33.5,74250.0,01081040200,32.6113816,-85.4521355
48453001834,Travis County,Texas,TX,2.751,-1.103,Urban,8204,11.2,70192.0,48453001834,30.3502745,-97.6605603
4019003600,Pima County,Arizona,AZ,2.743,-1.41,Urban,4552,15.8,49861.0,04019003600,32.1612127,-110.8488608
37183053713,Wake County,North Carolina,NC,2.742,-1.127,Urban,3588,9.0,52647.0,37183053713,35.8789783,-78.6954477
39049007043,Franklin County,Ohio,OH,2.738,-0.778,Urban,4047,10.7,59342.0,39049007043,40.1214012,-83.006916
6085504700,Santa Clara County,California,CA,2.73,-1.586,Urban,719,8.1,87000.0,06085504700,37.4164754,-122.0497236
36045060804,Jefferson County,New York,NY,2.728,-1.376,Urban,7895,7.2,51929.0,36045060804,44.0423316,-75.7508798
26061000800,Houghton County,Michigan,MI,2.725,-1.068,Urban,6394,48.1,61500.0,26061000800,47.1021101,-88.5368685
28105950400,Oktibbeha County,Mississippi,MS,2.722,-0.595,Urban,7346,44.3,66641.0,28105950400,33.477053,-88.7985622
48027023202,Bell County,Texas,TX,2.716,-1.246,Urban,5198,16.0,40346.0,48027023202,31.1272747,-97.7767498
48041001301,Brazos County,Texas,TX,2.713,-1.239,Urban,2547,37.8,40487.0,48041001301,30.6382251,-96.3233783
48453001864,Travis County,Texas,TX,2.711,-1.079,Urban,2814,10.9,68802.0,48453001864,30.4490699,-97.7018504
48099010504,Coryell County,Texas,TX,2.71,-1.215,Urban,2671,8.4,51250.0,48099010504,31.1154776,-97.8433591
2020000300,Anchorage Municipality,Alaska,AK,2.704,-1.709,Urban,8000,4.5,62114.0,02020000300,61.2847446,-149.6539729
1081040400,Lee County,Alabama,AL,2.701,-0.616,Urban,6960,33.7,77529.0,01081040400,32.5860083,-85.480959
51059416200,Fairfax County,Virginia,VA,2.695,-1.394,Urban,5280,4.9,78906.0,51059416200,38.6904794,-77.1510948
17097863004,Lake County,Illinois,IL,2.693,-1.254,Urban,4578,20.7,63542.0,17097863004,42.3046634,-87.8642657
33017080204,Strafford County,New Hampshire,NH,2.692,-1.661,Urban,4144,48.8,163750.0,33017080204,43.148966,-70.9423924
4013114100,Maricopa County,Arizona,AZ,2.69,-1.38,Urban,2401,26.3,148036.0,04013114100,33.4477675,-112.0738956
1081040300,Lee County,Alabama,AL,2.687,-0.608,Urban,2470,29.2,90893.0,01081040300,32.6017297,-85.4670439
2020000400,Anchorage Municipality,Alaska,AK,2.685,-1.699,Urban,5937,4.4,57244.0,02020000400,61.2666682,-149.8308576
17077011400,Jackson County,Illinois,IL,2.675,-1.251,Urban,3840,55.4,53167.0,17077011400,37.7079486,-89.1927187
53053072901,Pierce County,Washington,WA,2.673,-1.641,Urban,2507,9.4,55927.0,53053072901,47.1296327,-122.4909192
16065950302,Madison County,Idaho,ID,2.672,-1.358,Urban,10815,42.9,21760.0,16065950302,43.8070974,-111.8024146
42027011300,Centre County,Pennsylvania,PA,2.671,-1.166,Urban,8430,33.9,58750.0,42027011300,40.838017,-77.9072809
42019910400,Butler County,Pennsylvania,PA,2.67,-1.168,Urban,3625,35.0,79805.0,42019910400,41.0695007,-80.0579707
39133601503,Portage County,Ohio,OH,2.67,-0.704,Urban,4402,55.7,62206.0,39133601503,41.1408686,-81.3267948
42041013102,Cumberland County,Pennsylvania,PA,2.668,-1.158,Urban,5304,43.5,55417.0,42041013102,40.0645756,-77.5073117
47065012400,Hamilton County,Tennessee,TN,2.668,-0.894,Urban,5092,42.8,131027.0,47065012400,35.0440253,-85.2978673
42081000800,Lycoming County,Pennsylvania,PA,2.656,-1.136,Urban,2380,59.2,24659.0,42081000800,41.2337094,-77.0244754
45075011200,Orangeburg County,South Carolina,SC,2.655,-0.941,Urban,2843,22.3,35982.0,45075011200,33.49868,-80.84401
48453002421,Travis County,Texas,TX,2.653,-1.044,Urban,7443,13.7,66864.0,48453002421,30.162876,-97.8065168
53029970200,Island County,Washington,WA,2.652,-1.638,Urban,1633,38.7,47946.0,53029970200,48.3399471,-122.6683853
42125792200,Washington County,Pennsylvania,PA,2.652,-1.116,Urban,3007,29.7,42418.0,42125792200,40.0469557,-79.8949847
48029181901,Bexar County,Texas,TX,2.641,-1.201,Urban,3452,32.4,120341.0,48029181901,29.5969455,-98.6099198
26161411200,Washtenaw County,Michigan,MI,2.638,-0.978,Urban,2357,32.5,37500.0,26161411200,42.2569473,-83.620159
6111004600,Ventura County,California,CA,2.636,-1.52,Urban,2126,8.4,47694.0,06111004600,34.1061415,-119.1161812
26145010200,Saginaw County,Michigan,MI,2.634,-0.982,Urban,5078,21.4,71042.0,26145010200,43.5055528,-83.9851921
48041001604,Brazos County,Texas,TX,2.629,-1.189,Urban,5560,39.6,60195.0,48041001604,30.5957722,-96.3154431
48121021100,Denton County,Texas,TX,2.625,-1.156,Urban,2843,39.5,51393.0,48121021100,33.2104184,-97.1348764
30031001102,Gallatin County,Montana,MT,2.625,-1.423,Urban,2249,22.8,118194.0,30031001102,45.6394477,-111.0758146
1081040603,Lee County,Alabama,AL,2.625,-0.571,Urban,988,37.2,36536.0,01081040603,32.598547,-85.5163458
42049012202,Erie County,Pennsylvania,PA,2.623,-1.128,Urban,6438,21.5,77826.0,42049012202,41.874979,-80.1242456
48453001729,Travis County,Texas,TX,2.619,-1.024,Urban,4607,9.1,62727.0,48453001729,30.2027508,-97.8293774
21067001800,Fayette County,Kentucky,KY,2.615,-0.779,Urban,2623,62.8,24464.0,21067001800,38.0331196,-84.5153015
15003011400,Honolulu County,Hawaii,HI,2.613,-1.765,Urban,5372,13.0,59844.0,15003011400,21.3807393,-157.9764668
55063000500,La Crosse County,Wisconsin,WI,2.604,-1.32,Urban,4773,66.9,52857.0,55063000500,43.8229516,-91.22904
45079011701,Richland County,South Carolina,SC,2.603,-0.909,Urban,5137,64.1,32692.0,45079011701,33.9462907,-81.0037285
6037980015,Los Angeles County,California,CA,2.599,-1.526,Urban,554,20.0,38359.0,06037980015,33.7732472,-118.2888391
15003009000,Honolulu County,Hawaii,HI,2.594,-1.754,Urban,1634,8.0,65609.0,15003009000,21.4734603,-158.0346205
28035001000,Forrest County,Mississippi,MS,2.588,-0.543,Urban,4344,47.3,41875.0,28035001000,31.3419203,-89.3413749
17109010500,McDonough County,Illinois,IL,2.579,-1.181,Urban,2734,91.8,,17109010500,40.4714232,-90.6845498
41005980000,Clackamas County,Oregon,OR,2.577,-1.092,Rural,297,42.7,,41005980000,45.0641988,-121.9884098
49049001602,Utah County,Utah,UT,2.576,-1.717,Urban,3729,75.9,23333.0,49049001602,40.2507986,-111.6501809
45077011205,Pickens County,South Carolina,SC,2.574,-0.892,Urban,3569,66.7,113833.0,45077011205,34.6834674,-82.834566
4013111204,Maricopa County,Arizona,AZ,2.574,-1.311,Urban,2154,11.6,52500.0,04013111204,33.4585599,-111.9550359
26073000800,Isabella County,Michigan,MI,2.571,-0.972,Urban,2919,68.0,,26073000800,43.5635835,-84.7693625
18157005300,Tippecanoe County,Indiana,IN,2.569,-0.873,Urban,2992,60.4,63750.0,18157005300,40.4321604,-86.9045116
22105954200,Tangipahoa Parish,Louisiana,LA,2.563,-0.659,Urban,4729,24.8,67750.0,22105954200,30.5102022,-90.4731526
13121002800,Fulton County,Georgia,GA,2.563,-1.029,Urban,3547,32.2,22179.0,13121002800,33.758087,-84.379399
21047201302,Christian County,Kentucky,KY,2.546,-0.745,Urban,7507,23.4,47500.0,21047201302,36.6655085,-87.4146688
39093060200,Lorain County,Ohio,OH,2.543,-0.644,Urban,5151,20.0,86875.0,39093060200,41.285269,-82.2321055
30063000500,Missoula County,Montana,MT,2.539,-1.359,Urban,7416,36.2,70129.0,30063000500,46.8556344,-113.9900423
53075000600,Whitman County,Washington,WA,2.532,-1.548,Urban,7383,51.2,30781.0,53075000600,46.7708687,-117.0997509
6019005408,Fresno County,California,CA,2.526,-1.489,Urban,1276,81.8,,06019005408,36.8188106,-119.74232
51710002600,Norfolk city,Virginia,VA,2.51,-1.032,Urban,3835,60.8,48542.0,51710002600,36.8860879,-76.2966307
51750010101,Radford city,Virginia,VA,2.506,-1.014,Urban,4148,61.7,56774.0,51750010101,37.1241315,-80.5468209
26065003802,Ingham County,Michigan,MI,2.505,-0.936,Urban,4372,34.2,73214.0,26065003802,42.7608872,-84.4941487
9003503800,Hartford County,Connecticut,CT,2.502,-1.349,Urban,3508,40.4,18250.0,09003503800,41.7965907,-72.7106703
29147470300,Nodaway County,Missouri,MO,2.497,-0.864,Urban,8415,30.9,68045.0,29147470300,40.3429477,-94.8841216
48439106518,Tarrant County,Texas,TX,2.492,-0.953,Urban,3115,9.9,58385.0,48439106518,32.8230909,-97.0462956
48439113518,Tarrant County,Texas,TX,2.485,-0.949,Urban,5258,11.3,56086.0,48439113518,32.8573209,-97.0688401
5045030800,Faulkner County,Arkansas,AR,2.479,-0.641,Urban,5494,25.4,68125.0,05045030800,35.0825284,-92.469026
26161412600,Washtenaw County,Michigan,MI,2.478,-0.882,Urban,2523,5.8,54958.0,26161412600,42.2177788,-83.5690668
34023006002,Middlesex County,New Jersey,NJ,2.476,-1.298,Urban,5496,24.5,54570.0,34023006002,40.4836226,-74.4296756
1125012600,Tuscaloosa County,Alabama,AL,2.472,-0.463,Urban,2876,45.5,,01125012600,33.2186194,-87.5176867
20061000600,Geary County,Kansas,KS,2.469,-0.949,Urban,5838,15.6,42885.0,20061000600,39.0685603,-96.8021372
46011958900,Brookings County,South Dakota,SD,2.466,-1.171,Urban,7389,30.2,90020.0,46011958900,44.3333409,-96.7736111
53029970900,Island County,Washington,WA,2.464,-1.526,Urban,4801,10.4,46659.0,53029970900,48.2976251,-122.5727329
21067000900,Fayette County,Kentucky,KY,2.464,-0.689,Urban,4420,65.0,40653.0,21067000900,38.0438658,-84.5134565
22033004015,East Baton Rouge Parish,Louisiana,LA,2.458,-0.624,Urban,8474,21.6,51756.0,22033004015,30.3522083,-91.1238112
29510117100,St. Louis city,Missouri,MO,2.456,-0.699,Urban,1537,20.5,53500.0,29510117100,38.6146101,-90.2620141
39035104200,Cuyahoga County,Ohio,OH,2.454,-0.613,Urban,1143,34.7,35446.0,39035104200,41.4852632,-81.687549
24003740602,Anne Arundel County,Maryland,MD,2.451,-1.129,Urban,3959,10.5,67331.0,24003740602,39.1185788,-76.7352949
47037013602,Davidson County,Tennessee,TN,2.44,-0.768,Urban,2120,39.4,,47037013602,36.1685854,-86.8283325
1109189100,Pike County,Alabama,AL,2.44,-0.45,Urban,7023,40.4,42083.0,01109189100,31.7469334,-85.9138351
47113001605,Madison County,Tennessee,TN,2.427,-0.732,Urban,3043,23.3,79063.0,47113001605,35.6741154,-88.8708569
15003007302,Honolulu County,Hawaii,HI,2.424,-1.652,Urban,3866,3.5,75760.0,15003007302,21.339213,-157.9582826
48471790700,Walker County,Texas,TX,2.424,-0.9,Urban,7363,53.6,44500.0,48471790700,30.6989074,-95.5362797
36109001300,Tompkins County,New York,NY,2.421,-1.168,Urban,6209,21.9,99455.0,36109001300,42.4196815,-76.4437328
49011125200,Davis County,Utah,UT,2.419,-1.638,Urban,3319,8.6,50948.0,49011125200,41.1291265,-111.9919303
47141000800,Putnam County,Tennessee,TN,2.414,-0.713,Urban,5420,44.2,39410.0,47141000800,36.1740809,-85.5179475
36027150003,Dutchess County,New York,NY,2.413,-1.195,Urban,3027,20.7,105694.0,36027150003,42.0273095,-73.9178618
17077011700,Jackson County,Illinois,IL,2.401,-1.087,Urban,7021,44.6,39470.0,17077011700,37.6946934,-89.2140869
45077011102,Pickens County,South Carolina,SC,2.397,-0.787,Urban,7342,42.3,56075.0,45077011102,34.7109098,-82.7563613
6071025000,San Bernardino County,California,CA,2.395,-1.391,Urban,8850,5.4,51920.0,06071025000,35.46344,-116.614245
48453002307,Travis County,Texas,TX,2.392,-0.889,Urban,5270,17.7,53958.0,48453002307,30.2231019,-97.740968
49035101400,Salt Lake County,Utah,UT,2.387,-1.609,Urban,4816,42.3,33270.0,49035101400,40.7658471,-111.8296175
48439105007,Tarrant County,Texas,TX,2.382,-0.888,Urban,4557,10.0,57370.0,48439105007,32.8511135,-97.3060309
4005001102,Coconino County,Arizona,AZ,2.379,-1.198,Urban,6650,26.6,64135.0,04005001102,35.1881172,-111.6816373
48453002423,Travis County,Texas,TX,2.376,-0.878,Urban,5383,5.9,70076.0,48453002423,30.1797327,-97.8062117
48491020504,Williamson County,Texas,TX,2.375,-0.864,Urban,8362,9.6,62905.0,48491020504,30.474611,-97.6955478
15003009502,Honolulu County,Hawaii,HI,2.369,-1.619,Urban,4243,4.2,69154.0,15003009502,21.4957262,-158.0699628
18097310110,Marion County,Indiana,IN,2.365,-0.774,Urban,2881,11.1,58750.0,18097310110,39.8453099,-86.2830259
21151010903,Madison County,Kentucky,KY,2.361,-0.595,Urban,3898,30.7,54964.0,21151010903,37.724939,-84.3160746
29161890400,Phelps County,Missouri,MO,2.359,-0.776,Urban,5555,50.0,33505.0,29161890400,37.9607714,-91.7782993
48491020406,Williamson County,Texas,TX,2.357,-0.852,Urban,6250,12.0,57577.0,48491020406,30.4525104,-97.7706787
31109000900,Lancaster County,Nebraska,NE,2.356,-1.067,Urban,3749,20.6,72875.0,31109000900,40.8257368,-96.6628077
27013171101,Blue Earth County,Minnesota,MN,2.353,-1.363,Urban,6063,48.6,42841.0,27013171101,44.1503758,-94.0014547
48453001863,Travis County,Texas,TX,2.351,-0.864,Urban,3401,19.0,40274.0,48453001863,30.4324868,-97.6766198
26077000500,Kalamazoo County,Michigan,MI,2.346,-0.836,Urban,4739,40.3,34637.0,26077000500,42.2971927,-85.6031842
20051072900,Ellis County,Kansas,KS,2.342,-0.878,Urban,6284,37.0,49176.0,20051072900,38.8421845,-99.3522559
17109010400,McDonough County,Illinois,IL,2.341,-1.039,Urban,7319,47.9,89922.0,17109010400,40.4636385,-90.6960448
54061010800,Monongalia County,West Virginia,WV,2.334,-0.19,Urban,4314,21.9,75679.0,54061010800,39.6555881,-79.900957
8041003801,El Paso County,Colorado,CO,2.326,-1.745,Urban,2196,5.6,65000.0,08041003801,38.9773725,-104.8672384
51121020700,Montgomery County,Virginia,VA,2.326,-1.15,Urban,5856,31.3,90326.0,51121020700,37.2062011,-80.3946319
26107960600,Mecosta County,Michigan,MI,2.325,-0.811,Urban,3543,37.0,66467.0,26107960600,43.6912652,-85.4998622
49049001603,Utah County,Utah,UT,2.32,-1.564,Urban,4328,60.0,20012.0,49049001603,40.2595686,-111.64212
35049001302,Santa Fe County,New Mexico,NM,2.313,-1.023,Urban,2852,16.5,48485.0,35049001302,35.6334515,-106.0305241
42027011502,Centre County,Pennsylvania,PA,2.31,-0.95,Urban,7867,34.7,80052.0,42027011502,40.7936666,-77.8905482
15003009504,Honolulu County,Hawaii,HI,2.308,-1.583,Urban,1271,5.6,76083.0,15003009504,21.4917483,-158.0491955
42003459202,Allegheny County,Pennsylvania,PA,2.303,-0.955,Urban,661,8.6,53906.0,42003459202,40.4282449,-80.1010931
9007541300,Middlesex County,Connecticut,CT,2.297,-1.225,Urban,6207,5.2,76540.0,09007541300,41.5922334,-72.704025
13059000600,Clarke County,Georgia,GA,2.297,-0.893,Urban,2594,52.6,27778.0,13059000600,33.9549681,-83.3861575
15003009501,Honolulu County,Hawaii,HI,2.28,-1.566,Urban,4893,4.6,53428.0,15003009501,21.4883996,-158.0683461
13059001900,Clarke County,Georgia,GA,2.268,-0.876,Urban,3229,31.2,69659.0,13059001900,33.9663942,-83.3904044
24003740601,Anne Arundel County,Maryland,MD,2.259,-1.014,Urban,3661,5.2,79189.0,24003740601,39.1227701,-76.7571859
45077011204,Pickens County,South Carolina,SC,2.257,-0.703,Urban,4368,45.4,47862.0,45077011204,34.7401093,-82.85118
24031700310,Montgomery County,Maryland,MD,2.255,-1.001,Urban,5267,10.3,92175.0,24031700310,39.1826275,-77.283306
51760030200,Richmond city,Virginia,VA,2.255,-0.86,Urban,2055,37.1,,51760030200,37.5456964,-77.4359931
24037875801,St. Mary's County,Maryland,MD,2.252,-0.997,Urban,1014,7.1,68393.0,24037875801,38.2848482,-76.4076612
48041001302,Brazos County,Texas,TX,2.247,-0.961,Urban,4028,32.4,61635.0,48041001302,30.6322259,-96.3136454
4013422304,Maricopa County,Arizona,AZ,2.24,-1.111,Urban,2786,14.2,55625.0,04013422304,33.3468596,-111.8362733
51710002500,Norfolk city,Virginia,VA,2.24,-0.871,Urban,4748,49.8,27240.0,51710002500,36.8821639,-76.3067789
47037019118,Davidson County,Tennessee,TN,2.232,-0.645,Urban,4780,17.2,57125.0,47037019118,36.0382898,-86.6692376
47093000100,Knox County,Tennessee,TN,2.229,-0.621,Urban,1605,29.8,113750.0,47093000100,35.9651016,-83.9201573
31055007001,Douglas County,Nebraska,NE,2.228,-1.011,Urban,3944,22.6,55436.0,31055007001,41.2306794,-96.014801
48113009900,Dallas County,Texas,TX,2.228,-0.922,Urban,2537,11.3,60268.0,48113009900,32.8844801,-96.9082259
16065950400,Madison County,Idaho,ID,2.224,-1.091,Urban,6109,22.8,61058.0,16065950400,43.7747647,-111.5528132
20045000501,Douglas County,Kansas,KS,2.22,-0.807,Urban,3227,18.8,59813.0,20045000501,38.9827095,-95.2490785
16057005100,Latah County,Idaho,ID,2.22,-1.092,Urban,7583,32.2,62750.0,16057005100,46.771348,-117.0104176
18167011100,Vigo County,Indiana,IN,2.217,-0.659,Urban,7060,49.7,,18167011100,39.4618988,-87.4122468
55035001200,Eau Claire County,Wisconsin,WI,2.214,-1.098,Urban,5424,56.5,67600.0,55035001200,44.803585,-91.522505
49049001702,Utah County,Utah,UT,2.205,-1.495,Urban,4586,41.0,48500.0,49049001702,40.240589,-111.6357092
48453001844,Travis County,Texas,TX,2.178,-0.761,Urban,3668,10.6,58036.0,48453001844,30.3959497,-97.7013613
48439122400,Tarrant County,Texas,TX,2.175,-0.764,Urban,5760,39.8,52656.0,48439122400,32.7263752,-97.1175591
42085033000,Mercer County,Pennsylvania,PA,2.169,-0.844,Urban,5125,20.4,62130.0,42085033000,41.154426,-80.0878143
39049009336,Franklin County,Ohio,OH,2.168,-0.436,Urban,2738,17.3,39837.0,39049009336,39.9223517,-82.9254669
19013002304,Black Hawk County,Iowa,IA,2.165,-0.981,Urban,2749,29.1,111000.0,19013002304,42.5226723,-92.4571981
48453002313,Travis County,Texas,TX,2.163,-0.752,Urban,4311,25.1,29966.0,48453002313,30.2201793,-97.7260193
47149041403,Rutherford County,Tennessee,TN,2.158,-0.557,Urban,7429,28.3,83239.0,47149041403,35.8630955,-86.3505206
33005971401,Cheshire County,New Hampshire,NH,2.157,-1.346,Urban,5364,30.4,69667.0,33005971401,42.920039,-72.2992025
47037019111,Davidson County,Tennessee,TN,2.154,-0.598,Urban,4163,17.3,49012.0,47037019111,36.0492324,-86.6797933
47093003801,Knox County,Tennessee,TN,2.154,-0.576,Urban,4268,27.5,57361.0,47093003801,35.9530877,-83.9944028
13045910501,Carroll County,Georgia,GA,2.154,-0.813,Urban,8876,35.5,42111.0,13045910501,33.5892617,-85.1192725
26161405600,Washtenaw County,Michigan,MI,2.153,-0.688,Urban,4279,22.3,44722.0,26161405600,42.233353,-83.7210304
51810045408,Virginia Beach city,Virginia,VA,2.143,-0.774,Urban,6415,8.4,65341.0,51810045408,36.7799845,-76.0252078
5119004800,Pulaski County,Arkansas,AR,2.138,-0.409,Urban,3243,26.5,65192.0,05119004800,34.7482761,-92.3181108
33009961000,Grafton County,New Hampshire,NH,2.136,-1.332,Urban,6990,13.0,65500.0,33009961000,43.743912,-71.7267441
5031000602,Craighead County,Arkansas,AR,2.135,-0.441,Urban,6150,51.5,21807.0,05031000602,35.8434752,-90.6825944
26161465000,Washtenaw County,Michigan,MI,2.134,-0.677,Urban,5821,8.0,76991.0,26161465000,42.4063388,-83.7552561
37085070802,Harnett County,North Carolina,NC,2.132,-0.801,Urban,4969,25.0,68281.0,37085070802,35.4052543,-78.7508208
46011958802,Brookings County,South Dakota,SD,2.132,-0.972,Urban,6516,25.7,62267.0,46011958802,44.3339133,-96.818806
13051000100,Chatham County,Georgia,GA,2.126,-0.794,Urban,1811,83.5,10921.0,13051000100,32.0823335,-81.103942
8041004401,El Paso County,Colorado,CO,2.122,-1.623,Urban,8339,18.0,47301.0,08041004401,38.7386944,-104.8043505
6073009107,San Diego County,California,CA,2.121,-1.227,Urban,3688,28.3,66223.0,06073009107,32.7677269,-117.1885238
18097320204,Marion County,Indiana,IN,2.119,-0.627,Urban,5374,24.1,41680.0,18097320204,39.9184128,-86.1092043
13135050541,Gwinnett County,Georgia,GA,2.114,-0.755,Urban,5061,25.7,34342.0,13135050541,33.9477158,-84.1068074
18157010203,Tippecanoe County,Indiana,IN,2.109,-0.599,Urban,8155,25.8,103479.0,18157010203,40.4830657,-86.9236687
26065004500,Ingham County,Michigan,MI,2.109,-0.699,Urban,3790,22.1,66695.0,26065004500,42.764057,-84.4599215
1089010622,Madison County,Alabama,AL,2.108,-0.259,Urban,9764,27.5,45824.0,01089010622,34.760657,-86.6756291
20045001002,Douglas County,Kansas,KS,2.105,-0.738,Urban,5747,15.3,60952.0,20045001002,38.930865,-95.1970268
31019969600,Buffalo County,Nebraska,NE,2.104,-0.951,Urban,5475,36.7,27453.0,31019969600,40.6979651,-99.1053363
40027201102,Cleveland County,Oklahoma,OK,2.102,-0.451,Urban,2783,29.3,67411.0,40027201102,35.195835,-97.4584988
26077001506,Kalamazoo County,Michigan,MI,2.101,-0.69,Urban,6971,38.5,74167.0,26077001506,42.285421,-85.641612
39049008161,Franklin County,Ohio,OH,2.099,-0.395,Urban,7166,19.5,59665.0,39049008161,39.9013182,-83.1354983
53037975401,Kittitas County,Washington,WA,2.091,-1.299,Urban,7501,45.0,65792.0,53037975401,47.0080705,-120.5199221
36109001100,Tompkins County,New York,NY,2.081,-0.964,Urban,5647,33.9,92981.0,36109001100,42.4103259,-76.4921491
22061961000,Lincoln Parish,Louisiana,LA,2.08,-0.387,Urban,6703,42.4,48344.0,22061961000,32.4887072,-92.6906841
6073009201,San Diego County,California,CA,2.08,-1.202,Urban,5014,15.1,66696.0,06073009201,32.8015228,-117.1463385
28105950100,Oktibbeha County,Mississippi,MS,2.078,-0.211,Urban,7611,39.2,78517.0,28105950100,33.4996016,-88.7399685
19103000400,Johnson County,Iowa,IA,2.077,-0.894,Urban,6875,27.1,107905.0,19103000400,41.654688,-91.60993
27013171600,Blue Earth County,Minnesota,MN,2.069,-1.193,Urban,5023,29.0,95278.0,27013171600,44.1376365,-93.9943155
13059150600,Clarke County,Georgia,GA,2.063,-0.753,Urban,3242,33.1,46724.0,13059150600,33.935961,-83.3355465
51149850200,Prince George County,Virginia,VA,2.06,-0.98,Urban,3460,5.5,63507.0,51149850200,37.2487382,-77.3361315
51107611002,Loudoun County,Virginia,VA,2.055,-0.993,Urban,3869,10.6,84543.0,51107611002,39.0642268,-77.4557941
1089011021,Madison County,Alabama,AL,2.042,-0.22,Urban,3912,7.8,63665.0,01089011021,34.6854417,-86.7645134
36083041300,Rensselaer County,New York,NY,2.041,-0.951,Urban,5633,21.7,82583.0,36083041300,42.7297985,-73.6668224
37129011605,New Hanover County,North Carolina,NC,2.041,-0.729,Urban,4997,28.2,53631.0,37129011605,34.2569713,-77.8790213
13067030228,Cobb County,Georgia,GA,2.032,-0.732,Urban,6394,23.5,81442.0,13067030228,34.0334648,-84.564961
24017850201,Charles County,Maryland,MD,2.029,-0.871,Urban,787,0.9,54811.0,24017850201,38.564193,-77.207069
28071950201,Lafayette County,Mississippi,MS,2.029,-0.194,Urban,2942,29.1,97721.0,28071950201,34.380627,-89.4982386
28105950602,Oktibbeha County,Mississippi,MS,2.024,-0.178,Urban,5614,28.5,52644.0,28105950602,33.4217823,-88.8279633
24510270903,Baltimore city,Maryland,MD,2.013,-0.671,Urban,4603,16.3,68558.0,24510270903,39.3426876,-76.5900973
55043961000,Grant County,Wisconsin,WI,2.013,-0.974,Urban,7749,21.8,79844.0,55043961000,42.7478702,-90.4916071
37067000801,Forsyth County,North Carolina,NC,2.012,-0.736,Urban,3062,80.5,11458.0,37067000801,36.0858058,-80.2277613
21111005200,Jefferson County,Kentucky,KY,2.011,-0.401,Urban,3375,27.6,71087.0,21111005200,38.2291515,-85.7618363
24031700818,Montgomery County,Maryland,MD,2.004,-0.851,Urban,6078,19.7,56917.0,24031700818,39.1786227,-77.2569929
40119010200,Payne County,Oklahoma,OK,1.999,-0.354,Urban,5507,42.8,47284.0,40119010200,36.1524508,-97.0921057
48121020800,Denton County,Texas,TX,1.997,-0.781,Urban,5082,40.2,52917.0,48121020800,33.198343,-97.1797465
51121020500,Montgomery County,Virginia,VA,1.994,-0.952,Urban,5988,34.2,125438.0,51121020500,37.2628965,-80.3818027
40039960600,Custer County,Oklahoma,OK,1.989,-0.378,Urban,5377,40.8,35903.0,40039960600,35.5565522,-98.784584
18097330106,Marion County,Indiana,IN,1.974,-0.541,Urban,4509,18.1,45104.0,18097330106,39.9000296,-86.0410847
8059011732,Jefferson County,Colorado,CO,1.973,-1.528,Urban,4331,10.8,69390.0,08059011732,39.7211174,-105.1420325
24021752301,Frederick County,Maryland,MD,1.971,-0.835,Urban,4168,8.1,94844.0,24021752301,39.3659436,-77.4308472
15003007100,Honolulu County,Hawaii,HI,1.969,-1.381,Urban,2713,3.7,73108.0,15003007100,21.3387005,-157.9353493
48113014204,Dallas County,Texas,TX,1.967,-0.766,Urban,2275,37.8,29115.0,48113014204,32.8479426,-96.9243531
1081040602,Lee County,Alabama,AL,1.966,-0.178,Urban,4152,24.2,66875.0,01081040602,32.6152846,-85.5181586
48453001840,Travis County,Texas,TX,1.964,-0.633,Urban,9004,14.6,66050.0,48453001840,30.4253124,-97.6522327
15003006804,Honolulu County,Hawaii,HI,1.958,-1.374,Urban,2835,2.1,66383.0,15003006804,21.3604855,-157.9118609
48141001111,El Paso County,Texas,TX,1.955,-0.748,Urban,4811,21.6,56991.0,48141001111,31.8278601,-106.5014845
51121020300,Montgomery County,Virginia,VA,1.953,-0.927,Urban,6576,37.4,107785.0,51121020300,37.2467412,-80.4548722
6073008902,San Diego County,California,CA,1.95,-1.125,Urban,2221,5.4,68462.0,06073008902,32.7638332,-117.1785432
45019002612,Charleston County,South Carolina,SC,1.946,-0.54,Urban,6479,14.2,59018.0,45019002612,32.8174841,-80.0204648
26125140302,Oakland County,Michigan,MI,1.944,-0.577,Urban,3556,21.2,103750.0,26125140302,42.7014803,-83.237257
53053072905,Pierce County,Washington,WA,1.94,-1.204,Urban,5214,20.3,39211.0,53053072905,47.0914967,-122.6039829
48491020809,Williamson County,Texas,TX,1.94,-0.604,Urban,5885,6.1,63600.0,48491020809,30.5228193,-97.5223562
19061000701,Dubuque County,Iowa,IA,1.938,-0.827,Urban,3426,39.9,51987.0,19061000701,42.503532,-90.6803364
18105000903,Monroe County,Indiana,IN,1.938,-0.516,Urban,4819,30.0,43365.0,18105000903,39.171938,-86.4772602
4013061024,Maricopa County,Arizona,AZ,1.931,-0.927,Urban,2177,8.3,53611.0,04013061024,33.4137948,-112.3997843
48029181823,Bexar County,Texas,TX,1.926,-0.774,Urban,2495,36.5,60163.0,48029181823,29.5794462,-98.639192
41003000100,Benton County,Oregon,OR,1.924,-1.025,Urban,7059,15.3,64271.0,41003000100,44.535963,-123.2632065
36077591000,Otsego County,New York,NY,1.923,-0.883,Urban,3481,31.4,70500.0,36077591000,42.465141,-75.0597464
47125100100,Montgomery County,Tennessee,TN,1.921,-0.425,Urban,1303,38.0,,47125100100,36.5275467,-87.3558995
55025001502,Dane County,Wisconsin,WI,1.921,-0.927,Urban,5399,10.4,64663.0,55025001502,43.0355094,-89.3447908
18105000904,Monroe County,Indiana,IN,1.919,-0.505,Urban,5259,40.8,92800.0,18105000904,39.1574924,-86.4795843
48479001715,Webb County,Texas,TX,1.918,-0.596,Urban,6486,12.4,54773.0,48479001715,27.5982639,-99.5055179
42013100800,Blair County,Pennsylvania,PA,1.916,-0.72,Urban,1917,24.3,78438.0,42013100800,40.5365857,-78.4062173
48381021802,Randall County,Texas,TX,1.909,-0.628,Urban,5426,21.1,68711.0,48381021802,34.9819743,-101.9069029
13135050540,Gwinnett County,Georgia,GA,1.904,-0.63,Urban,6578,15.4,61556.0,13135050540,33.9748309,-84.02848
42049002800,Erie County,Pennsylvania,PA,1.904,-0.699,Urban,7462,22.2,74583.0,42049002800,42.1063351,-80.0516761
29019001001,Boone County,Missouri,MO,1.901,-0.558,Urban,4656,37.8,61875.0,29019001001,38.9445973,-92.3037123
51630000500,Fredericksburg city,Virginia,VA,1.899,-0.698,Urban,5845,10.8,90213.0,51630000500,38.3007831,-77.5063977
39025041306,Clermont County,Ohio,OH,1.896,-0.284,Urban,4286,12.7,59247.0,39025041306,39.0905688,-84.2680232
38035010400,Grand Forks County,North Dakota,ND,1.893,-0.747,Urban,6004,33.9,63750.0,38035010400,47.9262245,-97.1047087
25017368902,Middlesex County,Massachusetts,MA,1.887,-1.162,Urban,4320,17.6,77250.0,25017368902,42.3816151,-71.2270273
5007020206,Benton County,Arkansas,AR,1.884,-0.301,Urban,6189,9.3,50109.0,05007020206,36.3004942,-94.1212477
5007021201,Benton County,Arkansas,AR,1.884,-0.301,Urban,4239,20.0,53600.0,05007021201,36.197784,-94.5569668
32003002956,Clark County,Nevada,NV,1.883,-0.802,Urban,2697,8.7,48972.0,32003002956,36.1081117,-115.1944038
26161405100,Washtenaw County,Michigan,MI,1.881,-0.526,Urban,2225,26.4,84531.0,26161405100,42.2391841,-83.7083044
1077010100,Lauderdale County,Alabama,AL,1.88,-0.128,Urban,1959,39.1,,01077010100,34.7958382,-87.6598801
35049001204,Santa Fe County,New Mexico,NM,1.879,-0.763,Urban,5556,18.3,52845.0,35049001204,35.6462768,-106.0292125
19113003002,Linn County,Iowa,IA,1.877,-0.771,Urban,7327,21.2,74688.0,19113003002,41.9172724,-91.6429778
31109000202,Lancaster County,Nebraska,NE,1.871,-0.777,Urban,4351,24.7,42024.0,31109000202,40.8432445,-96.6488734
37147001001,Pitt County,North Carolina,NC,1.869,-0.62,Urban,2240,23.7,101029.0,37147001001,35.5932533,-77.246287
13135050304,Gwinnett County,Georgia,GA,1.865,-0.606,Urban,5163,15.8,49261.0,13135050304,33.9298021,-84.252576
53053072907,Pierce County,Washington,WA,1.864,-1.159,Urban,4679,15.1,43715.0,53053072907,47.1061131,-122.5398573
6001428700,Alameda County,California,CA,1.864,-1.101,Urban,4119,18.8,78906.0,06001428700,37.7801283,-122.3050028
24033807301,Prince George's County,Maryland,MD,1.862,-0.765,Urban,3289,19.5,77000.0,24033807301,39.0107603,-76.9438518
48209010304,Hays County,Texas,TX,1.861,-0.666,Urban,5233,53.2,22500.0,48209010304,29.9144551,-97.9049107
48439106514,Tarrant County,Texas,TX,1.861,-0.577,Urban,4943,17.0,63375.0,48439106514,32.7509863,-97.174681
4013113801,Maricopa County,Arizona,AZ,1.861,-0.885,Urban,2135,29.7,42738.0,04013113801,33.4471734,-111.9933575
37063001502,Durham County,North Carolina,NC,1.859,-0.646,Urban,5986,40.6,28447.0,37063001502,36.0096453,-78.9455301
1073005800,Jefferson County,Alabama,AL,1.855,-0.115,Urban,4216,26.6,44734.0,01073005800,33.4776544,-86.8147573
54077963800,Preston County,West Virginia,WV,1.855,0.423,Rural,6763,20.5,66023.0,54077963800,39.6486479,-79.6544936
27123033300,Ramsey County,Minnesota,MN,1.853,-1.022,Urban,3183,22.7,113625.0,27123033300,44.9503917,-93.1841258
4019004411,Pima County,Arizona,AZ,1.849,-0.876,Urban,7085,22.1,94554.0,04019004411,32.2473485,-111.0460112
29037060100,Cass County,Missouri,MO,1.848,-0.519,Urban,1703,12.7,53833.0,29037060100,38.8323206,-94.5495699
6075017902,San Francisco County,California,CA,1.845,-1.061,Urban,2880,48.8,56000.0,06075017902,37.8620462,-122.4195821
48215024000,Hidalgo County,Texas,TX,1.842,-0.652,Urban,15955,31.0,43981.0,48215024000,26.3214899,-98.1751312
9011870200,New London County,Connecticut,CT,1.841,-0.951,Urban,5557,8.5,56848.0,09011870200,41.3769003,-72.0563003
20177001800,Shawnee County,Kansas,KS,1.837,-0.527,Urban,4148,22.3,56736.0,20177001800,39.0377483,-95.7038707
8031980000,Denver County,Colorado,CO,1.833,-1.455,Urban,1165,7.0,62941.0,08031980000,39.8791986,-104.6910529
24001001800,Allegany County,Maryland,MD,1.829,-0.758,Urban,5411,26.3,64394.0,24001001800,39.6570617,-78.9459687
32031002614,Washoe County,Nevada,NV,1.827,-0.758,Urban,3498,7.9,51714.0,32031002614,39.6208529,-119.8765065
5143011101,Washington County,Arkansas,AR,1.825,-0.213,Urban,6562,32.4,39583.0,05143011101,36.0305603,-94.1648922
51059440202,Fairfax County,Virginia,VA,1.822,-0.873,Urban,5815,16.3,90833.0,51059440202,38.8567708,-77.2361249
53037975500,Kittitas County,Washington,WA,1.822,-1.139,Urban,5753,22.6,66442.0,53037975500,47.0198463,-120.5839142
20209045200,Wyandotte County,Kansas,KS,1.82,-0.505,Urban,3980,24.5,73106.0,20209045200,39.0545674,-94.6121595
13067030411,Cobb County,Georgia,GA,1.818,-0.605,Urban,4214,31.5,42115.0,13067030411,33.9371615,-84.5025541
48121020601,Denton County,Texas,TX,1.818,-0.673,Urban,4906,33.8,50986.0,48121020601,33.2274539,-97.1207871
22061960400,Lincoln Parish,Louisiana,LA,1.815,-0.228,Urban,5234,44.7,67874.0,22061960400,32.5496079,-92.6562368
42031160600,Clarion County,Pennsylvania,PA,1.814,-0.652,Urban,5276,28.5,56458.0,42031160600,41.2094447,-79.3800868
42041012300,Cumberland County,Pennsylvania,PA,1.812,-0.648,Urban,2562,30.7,43958.0,42041012300,40.2047227,-77.1993537
37129010900,New Hanover County,North Carolina,NC,1.811,-0.592,Urban,2250,10.0,51250.0,37129010900,34.2038769,-77.9489008
17037001001,DeKalb County,Illinois,IL,1.807,-0.748,Urban,7025,42.0,27686.0,17037001001,41.9578494,-88.7821785
17113000104,McLean County,Illinois,IL,1.805,-0.717,Urban,10908,21.5,62800.0,17113000104,40.5293061,-88.9972263
9013881300,Tolland County,Connecticut,CT,1.804,-0.928,Urban,6189,31.1,76875.0,09013881300,41.814024,-72.2834381
26125154200,Oakland County,Michigan,MI,1.798,-0.49,Urban,2970,15.9,48625.0,26125154200,42.6082725,-83.3457522
48303000405,Lubbock County,Texas,TX,1.796,-0.59,Urban,10654,26.2,50563.0,48303000405,33.606646,-101.9224447
4013116608,Maricopa County,Arizona,AZ,1.794,-0.845,Urban,3553,24.6,54056.0,04013116608,33.3671923,-112.2025579
51003011302,Albemarle County,Virginia,VA,1.793,-0.877,Urban,3765,29.9,55357.0,51003011302,38.0051515,-78.517413
48491020405,Williamson County,Texas,TX,1.792,-0.515,Urban,6444,13.5,51271.0,48491020405,30.448267,-97.7942453
4013111203,Maricopa County,Arizona,AZ,1.791,-0.843,Urban,1410,25.6,45298.0,04013111203,33.4534133,-111.9746086
18157005200,Tippecanoe County,Indiana,IN,1.791,-0.408,Urban,4517,22.0,81071.0,18157005200,40.4432272,-86.9069508
48113014133,Dallas County,Texas,TX,1.778,-0.653,Urban,3909,14.8,46023.0,48113014133,32.8701044,-97.0029707
42101036302,Philadelphia County,Pennsylvania,PA,1.775,-0.602,Urban,3543,6.0,65661.0,42101036302,40.0972506,-74.9805678
54061011000,Monongalia County,West Virginia,WV,1.771,0.146,Urban,4659,25.7,49821.0,54061011000,39.5994669,-79.9592461
17119403101,Madison County,Illinois,IL,1.769,-0.694,Urban,5885,30.4,89450.0,17119403101,38.7964789,-90.0091477
48313000100,Madison County,Texas,TX,1.769,-0.249,Rural,3601,19.2,50125.0,48313000100,31.0188802,-95.744105
41053020303,Polk County,Oregon,OR,1.768,-0.912,Urban,4359,34.3,54970.0,41053020303,44.8755168,-123.2143518
27053026006,Hennepin County,Minnesota,MN,1.767,-0.998,Urban,2832,11.0,73636.0,27053026006,44.8755569,-93.4614253
48099010502,Coryell County,Texas,TX,1.766,-0.651,Urban,4296,20.8,48910.0,48099010502,31.1441723,-97.8092248
37097061304,Iredell County,North Carolina,NC,1.765,-0.577,Urban,4705,10.5,58875.0,37097061304,35.615518,-80.8373826
48113014403,Dallas County,Texas,TX,1.765,-0.645,Urban,3909,14.9,42087.0,48113014403,32.8278797,-97.0197582
37183054018,Wake County,North Carolina,NC,1.758,-0.539,Urban,2553,18.9,51285.0,37183054018,35.8598798,-78.5897866
39061026600,Hamilton County,Ohio,OH,1.756,-0.186,Urban,1518,21.7,121250.0,39061026600,39.1188998,-84.447581
6071002109,San Bernardino County,California,CA,1.751,-1.007,Urban,4626,6.5,55975.0,06071002109,34.0750326,-117.5692572
48439113116,Tarrant County,Texas,TX,1.75,-0.51,Urban,3783,10.0,47813.0,48439113116,32.779908,-97.0650004
6075060400,San Francisco County,California,CA,1.741,-0.999,Urban,1689,9.6,92179.0,06075060400,37.72278,-122.4916513
45079010501,Richland County,South Carolina,SC,1.74,-0.393,Urban,1989,26.2,31500.0,45079010501,34.0691862,-81.0699246
47125101304,Montgomery County,Tennessee,TN,1.74,-0.316,Urban,4867,21.7,53974.0,47125101304,36.6192239,-87.4208846
13067030405,Cobb County,Georgia,GA,1.739,-0.557,Urban,5774,17.7,49091.0,13067030405,33.9369618,-84.4922623
28047001300,Harrison County,Mississippi,MS,1.738,-0.031,Urban,3056,23.1,48225.0,28047001300,30.3912006,-88.9701589
31109003301,Lancaster County,Nebraska,NE,1.732,-0.694,Urban,4119,29.3,67440.0,31109003301,40.8234416,-96.73238
13021010800,Bibb County,Georgia,GA,1.73,-0.569,Urban,1315,21.9,87368.0,13021010800,32.8441758,-83.6361825
40027201404,Cleveland County,Oklahoma,OK,1.73,-0.228,Urban,2328,21.5,91500.0,40027201404,35.1832537,-97.3650452
6073009603,San Diego County,California,CA,1.727,-0.992,Urban,4533,16.9,68370.0,06073009603,32.7846744,-117.1060347
29019001503,Boone County,Missouri,MO,1.726,-0.454,Urban,4023,25.5,48031.0,29019001503,39.0147938,-92.2998125
28115950200,Pontotoc County,Mississippi,MS,1.726,0.325,Rural,4637,21.7,60957.0,28115950200,34.307959,-89.161401
5143011103,Washington County,Arkansas,AR,1.725,0.168,Rural,4012,9.6,52373.0,05143011103,35.8794355,-94.053418
51830370100,Williamsburg city,Virginia,VA,1.721,-0.515,Urban,4138,20.1,127875.0,51830370100,37.2621212,-76.7010384
47179060600,Washington County,Tennessee,TN,1.719,-0.283,Urban,7045,31.7,57857.0,47179060600,36.2797495,-82.354418
46027965700,Clay County,South Dakota,SD,1.718,-0.718,Urban,5243,23.0,93914.0,46027965700,42.7672504,-96.92432
51059461902,Fairfax County,Virginia,VA,1.717,-0.81,Urban,1775,23.1,38077.0,51059461902,38.8680135,-77.306651
37081016102,Guilford County,North Carolina,NC,1.716,-0.554,Urban,3930,22.9,44737.0,37081016102,36.0827471,-79.8995787
47019070900,Carter County,Tennessee,TN,1.715,-0.342,Urban,3399,20.9,62339.0,47019070900,36.3052931,-82.2908044
13135050314,Gwinnett County,Georgia,GA,1.711,-0.514,Urban,9577,13.5,53689.0,13135050314,33.9590072,-84.1666354
30049000800,Lewis and Clark County,Montana,MT,1.71,-0.869,Urban,4305,20.2,81089.0,30049000800,46.5473873,-112.0846543
39049010300,Franklin County,Ohio,OH,1.709,-0.163,Urban,2801,22.1,38088.0,39049010300,39.8163001,-82.9227072
40083600600,Logan County,Oklahoma,OK,1.708,0.128,Rural,4338,17.9,49183.0,40083600600,35.8488195,-97.237254
4013318900,Maricopa County,Arizona,AZ,1.707,-0.793,Urban,6254,24.9,49932.0,04013318900,33.4146651,-111.952179
28137950302,Tate County,Mississippi,MS,1.707,0.345,Rural,6069,21.9,68240.0,28137950302,34.5983959,-90.0952087
46099010600,Minnehaha County,South Dakota,SD,1.706,-0.684,Urban,5306,14.2,62620.0,46099010600,43.5269123,-96.745258
13135050423,Gwinnett County,Georgia,GA,1.705,-0.511,Urban,6967,7.9,58276.0,13135050423,33.924414,-84.1337263
54037972702,Jefferson County,West Virginia,WV,1.704,0.177,Urban,4015,8.4,76500.0,54037972702,39.195229,-77.8121504
39133601300,Portage County,Ohio,OH,1.704,-0.127,Urban,6899,20.7,69800.0,39133601300,41.1673886,-81.36631
22079011600,Rapides Parish,Louisiana,LA,1.703,-0.155,Urban,2455,20.2,62423.0,22079011600,31.3405911,-92.4202397
18097390800,Marion County,Indiana,IN,1.701,-0.378,Urban,4069,9.9,57005.0,18097390800,39.7045283,-86.2947894
32031001501,Washoe County,Nevada,NV,1.697,-0.681,Urban,4444,21.5,61118.0,32031001501,39.5574664,-119.8110185
26125193500,Oakland County,Michigan,MI,1.697,-0.43,Urban,2715,21.1,51250.0,26125193500,42.6642641,-83.1078968
42071013602,Lancaster County,Pennsylvania,PA,1.696,-0.567,Urban,5565,26.6,65583.0,42071013602,39.9951472,-76.3604394
5071951900,Johnson County,Arkansas,AR,1.693,-0.161,Urban,3560,11.6,45217.0,05071951900,35.4951846,-93.4967241
51683910202,Manassas city,Virginia,VA,1.689,-0.551,Urban,7678,9.4,78750.0,51683910202,38.7735779,-77.476131
16057005300,Latah County,Idaho,ID,1.683,-0.771,Urban,6461,26.3,65103.0,16057005300,46.7055632,-116.9132097
56001963100,Albany County,Wyoming,WY,1.682,-0.992,Urban,7020,21.3,105400.0,56001963100,41.3280884,-105.5610334
55025002602,Dane County,Wisconsin,WI,1.68,-0.783,Urban,5576,12.3,68026.0,55025002602,43.1382579,-89.3135516
54037972402,Jefferson County,West Virginia,WV,1.679,0.193,Urban,4061,9.0,75938.0,54037972402,39.324099,-77.8757748
31109002900,Lancaster County,Nebraska,NE,1.678,-0.662,Urban,4968,16.3,57750.0,31109002900,40.8696972,-96.6482338
6067007105,Sacramento County,California,CA,1.678,-0.964,Urban,6725,20.0,90889.0,06067007105,38.6775795,-121.500568
19013002301,Black Hawk County,Iowa,IA,1.676,-0.689,Urban,2248,22.2,69792.0,19013002301,42.5177499,-92.4421021
6007001100,Butte County,California,CA,1.672,-0.984,Urban,4572,46.3,49337.0,06007001100,39.711661,-121.8514478
48201340100,Harris County,Texas,TX,1.669,-0.554,Urban,4618,9.3,58986.0,48201340100,29.5940423,-95.1839995
48201541800,Harris County,Texas,TX,1.668,-0.553,Urban,5762,18.4,58155.0,48201541800,29.7959432,-95.7037084
9011870300,New London County,Connecticut,CT,1.666,-0.847,Urban,6662,44.6,29300.0,09011870300,41.372934,-72.1019041
36029009115,Erie County,New York,NY,1.666,-0.748,Urban,3308,45.0,26833.0,36029009115,43.0080638,-78.8032102
45083021802,Spartanburg County,South Carolina,SC,1.665,-0.347,Urban,6059,42.2,32375.0,45083021802,34.9970483,-81.9699542
17031825302,Cook County,Illinois,IL,1.665,-0.665,Urban,6277,9.0,67396.0,17031825302,41.5811669,-87.7574059
24005408507,Baltimore County,Maryland,MD,1.665,-0.658,Urban,5966,10.1,70865.0,24005408507,39.4652387,-76.6214365
4009961600,Graham County,Arizona,AZ,1.663,-0.447,Rural,3161,21.1,55000.0,04009961600,32.7156277,-110.0977676
8041001600,El Paso County,Colorado,CO,1.66,-1.348,Urban,3712,31.0,42208.0,08041001600,38.8444894,-104.8237983
6035040400,Lassen County,California,CA,1.658,-0.644,Rural,9422,21.7,57350.0,06035040400,40.4420615,-120.3653805
48453001821,Travis County,Texas,TX,1.652,-0.446,Urban,5204,12.5,58990.0,48453001821,30.3809804,-97.7086052
17113000102,McLean County,Illinois,IL,1.649,-0.624,Urban,6831,37.7,82973.0,17113000102,40.5207118,-88.9869351
40119010600,Payne County,Oklahoma,OK,1.648,-0.144,Urban,4814,41.4,62500.0,40119010600,36.117561,-97.032216
48099010501,Coryell County,Texas,TX,1.648,-0.581,Urban,5245,25.3,42611.0,48099010501,31.1452359,-97.8264239
48029181504,Bexar County,Texas,TX,1.646,-0.606,Urban,5796,12.9,55736.0,48029181504,29.5058719,-98.5936735
39061020902,Hamilton County,Ohio,OH,1.646,-0.12,Urban,5493,21.7,63470.0,39061020902,39.1583236,-84.6105752
39009973700,Athens County,Ohio,OH,1.644,0.182,Rural,4140,21.6,63125.0,39009973700,39.2370513,-82.0336913
24031703301,Montgomery County,Maryland,MD,1.644,-0.636,Urban,4765,8.7,85417.0,24031703301,39.0700883,-77.0936006
48029192000,Bexar County,Texas,TX,1.644,-0.605,Urban,5244,20.3,61563.0,48029192000,29.4600994,-98.4693865
42007601100,Beaver County,Pennsylvania,PA,1.641,-0.558,Urban,3272,24.4,48309.0,42007601100,40.7766226,-80.3248825
13135050537,Gwinnett County,Georgia,GA,1.638,-0.471,Urban,4456,25.8,38488.0,13135050537,33.9575913,-84.0974519
18163000300,Vanderburgh County,Indiana,IN,1.636,-0.314,Urban,4248,18.8,40625.0,18163000300,37.9774347,-87.5305758
42035030700,Clinton County,Pennsylvania,PA,1.635,-0.544,Urban,7780,32.8,55395.0,42035030700,41.1375213,-77.462707
6037115104,Los Angeles County,California,CA,1.634,-0.95,Urban,4444,28.0,109091.0,06037115104,34.237491,-118.522646
4021000211,Pinal County,Arizona,AZ,1.63,-0.744,Urban,4465,13.8,52266.0,04021000211,33.1544205,-111.5390565
13135050424,Gwinnett County,Georgia,GA,1.63,-0.466,Urban,7229,21.6,45625.0,13135050424,33.9280387,-84.1569077
48465950500,Val Verde County,Texas,TX,1.628,-0.427,Urban,7472,18.6,46957.0,48465950500,29.3471678,-100.7882384
31109002701,Lancaster County,Nebraska,NE,1.627,-0.631,Urban,3168,16.3,38000.0,31109002701,40.773405,-96.6538481
55133202600,Waukesha County,Wisconsin,WI,1.626,-0.709,Urban,3498,18.5,50739.0,55133202600,43.006336,-88.2311475
6001401700,Alameda County,California,CA,1.625,-0.958,Urban,2667,16.0,67500.0,06001401700,37.813905,-122.315532
48201241103,Harris County,Texas,TX,1.625,-0.528,Urban,4298,14.0,53370.0,48201241103,30.0474108,-95.3807767
22015010805,Bossier Parish,Louisiana,LA,1.624,-0.133,Urban,3238,24.2,67321.0,22015010805,32.4776313,-93.6816839
48041002013,Brazos County,Texas,TX,1.624,-0.589,Urban,4873,27.8,59297.0,48041002013,30.5428855,-96.3255358
10003014706,New Castle County,Delaware,DE,1.623,-0.45,Urban,2974,9.5,61853.0,10003014706,39.6456598,-75.7175027
13179010208,Liberty County,Georgia,GA,1.623,-0.445,Urban,6492,10.4,51507.0,13179010208,31.7949425,-81.6406635
48157671400,Fort Bend County,Texas,TX,1.622,-0.543,Urban,8877,17.6,59495.0,48157671400,29.6147944,-95.5741983
28033070310,DeSoto County,Mississippi,MS,1.619,0.035,Urban,3716,20.2,47417.0,28033070310,34.9472972,-90.0060052
18003000400,Allen County,Indiana,IN,1.619,-0.365,Urban,2569,11.2,52137.0,18003000400,41.0850371,-85.0966573
48201551500,Harris County,Texas,TX,1.619,-0.524,Urban,7803,13.5,59125.0,48201551500,29.9392455,-95.5552356
36055013001,Monroe County,New York,NY,1.618,-0.709,Urban,7089,22.9,80550.0,36055013001,43.0985908,-77.625165
22105954001,Tangipahoa Parish,Louisiana,LA,1.618,-0.094,Urban,4388,33.6,49750.0,22105954001,30.5556941,-90.4703793
13089021705,DeKalb County,Georgia,GA,1.617,-0.476,Urban,5051,19.7,50767.0,13089021705,33.8802536,-84.26003
39049007812,Franklin County,Ohio,OH,1.613,-0.106,Urban,4094,25.8,79261.0,39049007812,40.0471725,-83.0367429
35049001205,Santa Fe County,New Mexico,NM,1.611,-0.604,Urban,5290,16.9,49712.0,35049001205,35.6386528,-106.0515351
28033070610,DeSoto County,Mississippi,MS,1.611,0.04,Urban,3001,13.0,51037.0,28033070610,34.9507098,-89.9883732
16005000800,Bannock County,Idaho,ID,1.608,-0.747,Urban,2916,50.5,36776.0,16005000800,42.8535038,-112.4332669
51810040200,Virginia Beach city,Virginia,VA,1.606,-0.454,Urban,5283,17.1,51632.0,51810040200,36.8853799,-76.1872753
51810040403,Virginia Beach city,Virginia,VA,1.602,-0.452,Urban,3810,7.2,54955.0,51810040403,36.8975681,-76.1711589
22089062100,St. Charles Parish,Louisiana,LA,1.602,-0.091,Urban,5925,11.9,53108.0,22089062100,29.9841727,-90.2968695
48143950500,Erath County,Texas,TX,1.599,-0.534,Urban,6967,37.2,55313.0,48143950500,32.2394491,-98.196661
48485012000,Wichita County,Texas,TX,1.598,-0.402,Urban,6852,28.0,71384.0,48485012000,33.8663954,-98.5268181
48041001601,Brazos County,Texas,TX,1.592,-0.57,Urban,4572,51.4,40990.0,48041001601,30.6075174,-96.3282144
41003000900,Benton County,Oregon,OR,1.592,-0.826,Urban,5438,22.3,101580.0,41003000900,44.584653,-123.3116182
13051010102,Chatham County,Georgia,GA,1.591,-0.475,Urban,5373,20.7,56976.0,13051010102,32.023324,-81.051857
48441013401,Taylor County,Texas,TX,1.586,-0.412,Urban,3736,7.0,52882.0,48441013401,32.4237274,-99.7997936
34005704801,Burlington County,New Jersey,NJ,1.581,-0.77,Urban,3122,4.1,63333.0,34005704801,40.0058557,-74.5676552
19103001801,Johnson County,Iowa,IA,1.58,-0.597,Urban,4920,15.2,41167.0,19103001801,41.6175794,-91.5012925
8101000903,Pueblo County,Colorado,CO,1.58,-1.276,Urban,777,87.8,,08101000903,38.3084072,-104.5776867
51660000102,Harrisonburg city,Virginia,VA,1.579,-0.495,Urban,4671,20.1,72679.0,51660000102,38.436436,-78.8328676
6071004510,San Bernardino County,California,CA,1.578,-0.904,Urban,5178,34.6,56591.0,06071004510,34.185401,-117.3194957
18097320108,Marion County,Indiana,IN,1.578,-0.304,Urban,5296,22.9,,18097320108,39.9047551,-86.1934762
25015820300,Hampshire County,Massachusetts,MA,1.577,-0.977,Urban,6818,31.9,87219.0,25015820300,42.4122164,-72.5188277
48453002430,Travis County,Texas,TX,1.575,-0.4,Urban,3422,26.2,52399.0,48453002430,30.1717158,-97.7550103
5143010301,Washington County,Arkansas,AR,1.571,-0.061,Urban,9474,24.9,48750.0,05143010301,36.1563418,-94.1306022
26093725100,Livingston County,Michigan,MI,1.566,-0.364,Urban,4407,13.9,57606.0,26093725100,42.6029232,-83.9416447
28073020302,Lamar County,Mississippi,MS,1.566,0.082,Urban,9208,35.5,46659.0,28073020302,31.3242865,-89.3790197
55035000600,Eau Claire County,Wisconsin,WI,1.565,-0.711,Urban,5107,10.2,54375.0,55035000600,44.8225872,-91.4883544
51760061000,Richmond city,Virginia,VA,1.565,-0.449,Urban,3284,21.3,35625.0,51760061000,37.5238449,-77.445002
13135050209,Gwinnett County,Georgia,GA,1.565,-0.427,Urban,8166,14.2,57310.0,13135050209,33.9743018,-84.1453842
39173021902,Wood County,Ohio,OH,1.56,-0.026,Urban,5080,52.4,37250.0,39173021902,41.3597575,-83.6292108
47183968203,Weakley County,Tennessee,TN,1.558,-0.185,Urban,3051,32.8,43819.0,47183968203,36.3453885,-88.8578236
29189219800,St. Louis County,Missouri,MO,1.558,-0.287,Urban,7435,7.8,61603.0,29189219800,38.5658698,-90.3125249
48439113220,Tarrant County,Texas,TX,1.557,-0.395,Urban,6271,16.3,44775.0,48439113220,32.8407936,-97.204479
39049009373,Franklin County,Ohio,OH,1.556,-0.071,Urban,5773,17.8,50781.0,39049009373,39.915708,-82.8493515
20091053557,Johnson County,Kansas,KS,1.553,-0.391,Urban,2192,20.5,56520.0,20091053557,38.8758249,-94.8151406
27103480400,Nicollet County,Minnesota,MN,1.553,-0.85,Urban,5925,23.0,82206.0,27103480400,44.3094034,-93.9817859
39153508000,Summit County,Ohio,OH,1.552,-0.029,Urban,4737,9.9,54722.0,39153508000,41.1491105,-81.5566533
48245002600,Jefferson County,Texas,TX,1.551,-0.466,Urban,6671,38.3,41286.0,48245002600,30.0388738,-94.0739622
51680000802,Lynchburg city,Virginia,VA,1.548,-0.469,Urban,2870,19.7,52096.0,51680000802,37.3923867,-79.192846
23005003100,Cumberland County,Maine,ME,1.547,-0.64,Urban,3722,9.1,59650.0,23005003100,43.6333139,-70.2700517
13135050542,Gwinnett County,Georgia,GA,1.546,-0.416,Urban,4711,14.3,48354.0,13135050542,33.9495818,-84.1250112
37081012601,Guilford County,North Carolina,NC,1.543,-0.45,Urban,5912,21.8,50230.0,37081012601,36.0615012,-79.8698591
10003014906,New Castle County,Delaware,DE,1.542,-0.401,Urban,4726,16.2,57435.0,10003014906,39.640141,-75.669143
32031002611,Washoe County,Nevada,NV,1.542,-0.588,Urban,5470,26.9,70158.0,32031002611,39.6499239,-119.8427657
51770003100,Roanoke city,Virginia,VA,1.539,-0.429,Urban,3837,4.0,68125.0,51770003100,37.2526,-79.9908962
6085503509,Santa Clara County,California,CA,1.538,-0.874,Urban,4040,5.0,95855.0,06085503509,37.3487217,-121.801472
1089001402,Madison County,Alabama,AL,1.537,0.081,Urban,4853,17.0,57587.0,01089001402,34.7227438,-86.6787178
45013000800,Beaufort County,South Carolina,SC,1.537,-0.298,Urban,5247,16.1,46173.0,45013000800,32.3847275,-80.6965888
19193002000,Woodbury County,Iowa,IA,1.535,-0.535,Urban,5416,12.6,53470.0,19193002000,42.4711874,-96.3649304
48439110203,Tarrant County,Texas,TX,1.533,-0.381,Urban,8748,15.3,62188.0,48439110203,32.852259,-97.2824881
6001451506,Alameda County,California,CA,1.533,-0.903,Urban,3138,7.3,87500.0,06001451506,37.6833516,-121.7291862
48167724000,Galveston County,Texas,TX,1.532,-0.485,Urban,2393,40.8,85234.0,48167724000,29.3510179,-94.823586
48113013011,Dallas County,Texas,TX,1.532,-0.506,Urban,4794,30.8,35438.0,48113013011,32.8780414,-96.6923776
24027602600,Howard County,Maryland,MD,1.532,-0.571,Urban,7113,9.6,76604.0,24027602600,39.2934994,-76.8071838
22071000617,Orleans Parish,Louisiana,LA,1.531,-0.056,Urban,4334,33.1,32281.0,22071000617,29.8974722,-89.9903933
39049007113,Franklin County,Ohio,OH,1.531,-0.057,Urban,4918,15.5,48286.0,39049007113,40.0683461,-82.9273814
10003014808,New Castle County,Delaware,DE,1.529,-0.393,Urban,6318,5.2,70110.0,10003014808,39.6181998,-75.7297243
39035106900,Cuyahoga County,Ohio,OH,1.527,-0.06,Urban,3501,15.0,49400.0,39035106900,41.4288584,-81.6925343
9001020900,Fairfield County,Connecticut,CT,1.526,-0.767,Urban,4906,5.8,77426.0,09001020900,41.0948307,-73.5217061
17113000501,McLean County,Illinois,IL,1.525,-0.55,Urban,2690,36.1,77933.0,17113000501,40.5028244,-88.9783846
55025000407,Dane County,Wisconsin,WI,1.521,-0.687,Urban,5661,23.3,65227.0,55025000407,43.0401727,-89.4893192
45019003113,Charleston County,South Carolina,SC,1.52,-0.285,Urban,2772,15.3,46888.0,45019003113,32.9546311,-80.0729838
17031770800,Cook County,Illinois,IL,1.52,-0.578,Urban,5582,7.0,62869.0,17031770800,41.9633197,-87.8664226
28137950400,Tate County,Mississippi,MS,1.52,0.135,Urban,5864,26.5,44960.0,28137950400,34.6214003,-89.978539
26065003902,Ingham County,Michigan,MI,1.519,-0.347,Urban,4380,30.0,103889.0,26065003902,42.7435788,-84.4652908
49049002500,Utah County,Utah,UT,1.516,-1.083,Urban,4297,24.8,32151.0,49049002500,40.229615,-111.6497278
6013313205,Contra Costa County,California,CA,1.516,-0.889,Urban,1724,2.0,93148.0,06013313205,38.0162991,-121.9166488
9009361500,New Haven County,Connecticut,CT,1.516,-0.757,Urban,7607,20.5,59677.0,09009361500,41.2875292,-72.9575865
39167020500,Washington County,Ohio,OH,1.511,0.001,Urban,2494,42.6,31250.0,39167020500,39.4147543,-81.451451
22071000616,Orleans Parish,Louisiana,LA,1.511,-0.044,Urban,4712,20.2,65500.0,22071000616,29.9154213,-89.9937375
53021020603,Franklin County,Washington,WA,1.51,-0.959,Urban,3907,19.4,64856.0,53021020603,46.266832,-119.2019488
48201241400,Harris County,Texas,TX,1.51,-0.459,Urban,7931,24.4,76015.0,48201241400,30.0851921,-95.4057872
6073020021,San Diego County,California,CA,1.51,-0.862,Urban,6423,15.6,67801.0,06073020021,33.1511693,-117.1773755
48453002427,Travis County,Texas,TX,1.506,-0.359,Urban,7995,16.7,58044.0,48453002427,30.1806752,-97.7634252
45079010412,Richland County,South Carolina,SC,1.505,-0.253,Urban,3159,15.8,50081.0,45079010412,34.038415,-81.077356
21111007100,Jefferson County,Kentucky,KY,1.505,-0.099,Urban,4508,23.4,59609.0,21111007100,38.2052796,-85.7475786
1101005403,Montgomery County,Alabama,AL,1.504,0.106,Urban,3614,24.6,40625.0,01101005403,32.3716245,-86.2001367
24021750803,Frederick County,Maryland,MD,1.504,-0.556,Urban,6122,6.8,90781.0,24021750803,39.4350979,-77.388724
37067001000,Forsyth County,North Carolina,NC,1.501,-0.431,Urban,4652,32.2,45962.0,37067001000,36.0784638,-80.2648934
6073003201,San Diego County,California,CA,1.5,-0.856,Urban,4932,14.2,55337.0,06073003201,32.6836181,-117.0608884
18157000400,Tippecanoe County,Indiana,IN,1.496,-0.232,Urban,4486,35.8,43004.0,18157000400,40.4262125,-86.885182
6085512506,Santa Clara County,California,CA,1.493,-0.847,Urban,6686,13.5,92643.0,06085512506,37.023032,-121.5818003
42049000900,Erie County,Pennsylvania,PA,1.492,-0.453,Urban,5454,36.6,40843.0,42049000900,42.1230964,-80.0992043
18157011100,Tippecanoe County,Indiana,IN,1.492,-0.229,Urban,4390,26.0,45373.0,18157011100,40.405359,-86.9033561
53033025805,King County,Washington,WA,1.491,-0.943,Urban,4551,5.0,70517.0,53033025805,47.4546858,-122.1937967
48453002207,Travis County,Texas,TX,1.489,-0.349,Urban,8379,10.4,59303.0,48453002207,30.2388615,-97.5844843
45013000502,Beaufort County,South Carolina,SC,1.488,-0.268,Urban,4808,23.3,52602.0,45013000502,32.4178372,-80.7337269
47149040403,Rutherford County,Tennessee,TN,1.487,-0.156,Urban,7353,24.4,47781.0,47149040403,36.0038235,-86.4780888
1089001500,Madison County,Alabama,AL,1.485,0.112,Urban,4946,27.7,42917.0,01089001500,34.7278559,-86.6288587
37183052507,Wake County,North Carolina,NC,1.485,-0.377,Urban,2803,20.5,71637.0,37183052507,35.8493407,-78.7028658
6085504318,Santa Clara County,California,CA,1.485,-0.842,Urban,5265,10.5,96359.0,06085504318,37.3768312,-121.8956875
26081013000,Kent County,Michigan,MI,1.481,-0.318,Urban,3173,12.0,57137.0,26081013000,42.9182503,-85.749863
1095030904,Marshall County,Alabama,AL,1.481,0.118,Urban,5409,20.4,47384.0,01095030904,34.2558623,-86.2776418
42091200902,Montgomery County,Pennsylvania,PA,1.481,-0.43,Urban,1257,9.8,58967.0,42091200902,40.2437323,-75.282351
48113018138,Dallas County,Texas,TX,1.477,-0.474,Urban,4076,17.3,53804.0,48113018138,32.8508976,-96.582081
37147000201,Pitt County,North Carolina,NC,1.476,-0.385,Urban,4952,48.3,37108.0,37147000201,35.6109554,-77.3426276
26163588200,Wayne County,Michigan,MI,1.476,-0.283,Urban,3312,21.8,50694.0,26163588200,42.2145466,-83.5129886
27053026104,Hennepin County,Minnesota,MN,1.474,-0.823,Urban,3717,3.0,58586.0,27053026104,44.9028714,-93.4212097
53033010701,King County,Washington,WA,1.473,-0.933,Urban,3385,20.6,69301.0,53033010701,47.5451419,-122.3675265
56001963700,Albany County,Wyoming,WY,1.473,-0.867,Urban,5226,29.2,83218.0,56001963700,41.3015332,-105.5243509
54021967800,Gilmer County,West Virginia,WV,1.473,0.31,Urban,2303,35.5,58125.0,54021967800,38.9494039,-80.8455643
8031008388,Denver County,Colorado,CO,1.472,-1.239,Urban,6962,4.5,68125.0,08031008388,39.7861611,-104.7914293
18133956300,Putnam County,Indiana,IN,1.472,-0.227,Urban,7300,11.4,55233.0,18133956300,39.6473825,-86.8263847
1089000202,Madison County,Alabama,AL,1.471,0.121,Urban,4399,39.3,36406.0,01089000202,34.7748838,-86.5765048
18097380600,Marion County,Indiana,IN,1.471,-0.24,Urban,5243,16.7,50417.0,18097380600,39.7002651,-86.1581085
6087100500,Santa Cruz County,California,CA,1.47,-0.833,Urban,5370,37.3,125400.0,06087100500,36.9701988,-122.0639762
39045032702,Fairfield County,Ohio,OH,1.469,-0.021,Urban,7340,9.1,59519.0,39045032702,39.9292534,-82.8002504
24027606707,Howard County,Maryland,MD,1.469,-0.533,Urban,3755,21.8,107113.0,24027606707,39.1765117,-76.8246671
47037015502,Davidson County,Tennessee,TN,1.468,-0.188,Urban,3924,14.4,52652.0,47037015502,36.1523916,-86.6522734
37001021702,Alamance County,North Carolina,NC,1.466,-0.435,Urban,5282,21.9,82621.0,37001021702,36.0930886,-79.5083273
55087012300,Outagamie County,Wisconsin,WI,1.466,-0.631,Urban,1647,4.5,60982.0,55087012300,44.2844342,-88.2633061
39017010103,Butler County,Ohio,OH,1.463,-0.028,Urban,5308,27.9,79519.0,39017010103,39.4918501,-84.7533865
45079002603,Richland County,South Carolina,SC,1.462,-0.227,Urban,4058,29.8,27338.0,45079002603,33.9782377,-80.988156
37183054500,Wake County,North Carolina,NC,1.461,-0.362,Urban,7761,22.2,63387.0,37183054500,35.742801,-78.6522589
9009141800,New Haven County,Connecticut,CT,1.461,-0.725,Urban,3892,26.2,54977.0,09009141800,41.3274738,-72.9210376
48201330301,Harris County,Texas,TX,1.455,-0.426,Urban,7169,10.2,59964.0,48201330301,29.6404078,-95.4708233
22073010101,Ouachita Parish,Louisiana,LA,1.453,-0.008,Urban,4678,23.6,54143.0,22073010101,32.6153924,-91.9638024
48201341201,Harris County,Texas,TX,1.452,-0.425,Urban,3974,27.6,38839.0,48201341201,29.5257658,-95.1129325
5115951300,Pope County,Arkansas,AR,1.449,0.001,Urban,7700,28.0,42008.0,05115951300,35.2995465,-93.1140144
13135050431,Gwinnett County,Georgia,GA,1.447,-0.356,Urban,7639,26.8,55250.0,13135050431,33.8616095,-84.1654553
53033031206,King County,Washington,WA,1.447,-0.917,Urban,4877,7.7,75938.0,53033031206,47.3135679,-122.1836163
28121020301,Rankin County,Mississippi,MS,1.445,0.173,Urban,3073,17.1,51600.0,28121020301,32.2882276,-90.1204603
22061960500,Lincoln Parish,Louisiana,LA,1.445,-0.008,Urban,4296,22.9,89348.0,22061960500,32.557133,-92.6246535
51710000800,Norfolk city,Virginia,VA,1.441,-0.394,Urban,2075,11.6,57847.0,51710000800,36.9378793,-76.2687837
51153900701,Prince William County,Virginia,VA,1.441,-0.609,Urban,4976,2.2,67340.0,51153900701,38.6208833,-77.2768035
48453001860,Travis County,Texas,TX,1.439,-0.319,Urban,3859,12.9,58792.0,48453001860,30.4529445,-97.6463726
36103159404,Suffolk County,New York,NY,1.439,-0.583,Urban,7313,6.9,67552.0,36103159404,40.81396,-72.8355225
37119005510,Mecklenburg County,North Carolina,NC,1.438,-0.373,Urban,5207,12.4,47656.0,37119005510,35.3260782,-80.8193663
5045030900,Faulkner County,Arkansas,AR,1.438,-0.019,Urban,3641,45.5,26910.0,05045030900,35.0753953,-92.4328461
47157021122,Shelby County,Tennessee,TN,1.437,-0.123,Urban,5626,21.4,44896.0,47157021122,35.1606529,-89.847794
4013114703,Maricopa County,Arizona,AZ,1.436,-0.631,Urban,8071,55.7,24293.0,04013114703,33.4296312,-112.1258821
45051060405,Horry County,South Carolina,SC,1.433,-0.221,Urban,5699,39.6,42014.0,45051060405,33.7922107,-79.0120361
48439111524,Tarrant County,Texas,TX,1.433,-0.321,Urban,7886,16.5,45089.0,48439111524,32.6982392,-97.1107855
48085031506,Collin County,Texas,TX,1.427,-0.454,Urban,8587,12.0,62462.0,48085031506,33.0905501,-96.6711733
42041010100,Cumberland County,Pennsylvania,PA,1.424,-0.416,Urban,5411,12.6,50638.0,42041010100,40.2972272,-76.9306144
21227010900,Warren County,Kentucky,KY,1.424,-0.006,Urban,3953,22.3,75665.0,21227010900,36.9715986,-86.4587138
47141000302,Putnam County,Tennessee,TN,1.421,-0.12,Urban,6569,37.3,32195.0,47141000302,36.194969,-85.5139351
5119004400,Pulaski County,Arkansas,AR,1.421,0.019,Urban,1606,21.3,165556.0,05119004400,34.7465826,-92.2776859
45045002604,Greenville County,South Carolina,SC,1.42,-0.215,Urban,5434,20.4,56515.0,45045002604,34.9153567,-82.2848315
18063210607,Hendricks County,Indiana,IN,1.418,-0.222,Urban,4269,17.4,51207.0,18063210607,39.7017522,-86.3506626
1043965700,Cullman County,Alabama,AL,1.417,0.457,Rural,2652,20.2,51477.0,01043965700,33.9216781,-87.0105855
42059970600,Greene County,Pennsylvania,PA,1.417,-0.404,Urban,4176,20.1,57083.0,42059970600,39.8982936,-80.1855815
26163584300,Wayne County,Michigan,MI,1.411,-0.244,Urban,1922,13.2,49773.0,26163584300,42.2163391,-83.2832664
48201252200,Harris County,Texas,TX,1.411,-0.4,Urban,7944,6.0,60889.0,48201252200,29.8329284,-95.1490398
55035000900,Eau Claire County,Wisconsin,WI,1.411,-0.618,Urban,4815,24.7,87417.0,55035000900,44.780772,-91.520738
48441012300,Taylor County,Texas,TX,1.41,-0.307,Urban,4482,22.1,41852.0,48441012300,32.4241912,-99.7508217
29043020204,Christian County,Missouri,MO,1.409,-0.255,Urban,4185,17.4,53427.0,29043020204,37.0190876,-93.2873917
47157021125,Shelby County,Tennessee,TN,1.408,-0.106,Urban,4375,22.0,77656.0,47157021125,35.1498376,-89.8060566
26065002901,Ingham County,Michigan,MI,1.407,-0.28,Urban,3076,15.3,53810.0,26065002901,42.7014413,-84.5157508
39063000500,Hancock County,Ohio,OH,1.407,0.023,Urban,5106,16.6,51039.0,39063000500,41.0717972,-83.6390673
48201540800,Harris County,Texas,TX,1.406,-0.397,Urban,7883,12.9,58931.0,48201540800,29.8880933,-95.6022229
4013112513,Maricopa County,Arizona,AZ,1.405,-0.613,Urban,8131,16.8,49265.0,04013112513,33.4249542,-112.1894721
44009051504,Washington County,Rhode Island,RI,1.404,-0.635,Urban,4445,26.4,90292.0,44009051504,41.3869424,-71.4906693
6037400604,Los Angeles County,California,CA,1.403,-0.812,Urban,2980,20.0,99191.0,06037400604,34.1519934,-117.8945884
42117950600,Tioga County,Pennsylvania,PA,1.403,-0.373,Urban,6021,25.2,59722.0,42117950600,41.8082613,-77.1046041
26065000600,Ingham County,Michigan,MI,1.398,-0.274,Urban,1649,31.2,43750.0,26065000600,42.7379819,-84.5584514
31055006400,Douglas County,Nebraska,NE,1.398,-0.515,Urban,4895,20.2,65900.0,31055006400,41.2717996,-96.0153924
48029181725,Bexar County,Texas,TX,1.396,-0.457,Urban,5411,12.7,49766.0,48029181725,29.4601895,-98.6260127
55127000400,Walworth County,Wisconsin,WI,1.395,-0.573,Urban,3855,17.9,54018.0,55127000400,42.8273168,-88.7120151
48113020400,Dallas County,Texas,TX,1.395,-0.424,Urban,5518,32.2,98566.0,48113020400,32.7717084,-96.7911232
26077001502,Kalamazoo County,Michigan,MI,1.393,-0.267,Urban,4207,21.3,75717.0,26077001502,42.3050319,-85.6367332
48273020300,Kleberg County,Texas,TX,1.393,-0.361,Urban,7271,37.4,43304.0,48273020300,27.5288503,-97.8802121
48453002208,Travis County,Texas,TX,1.392,-0.291,Urban,7525,24.6,46667.0,48453002208,30.2763965,-97.6536056
39049009430,Franklin County,Ohio,OH,1.392,0.027,Urban,7328,16.2,54179.0,39049009430,39.8982581,-82.9094203
18097310305,Marion County,Indiana,IN,1.392,-0.193,Urban,6557,14.8,55329.0,18097310305,39.844342,-86.2698563
21151010701,Madison County,Kentucky,KY,1.392,-0.016,Urban,4203,21.1,73750.0,21151010701,37.7770771,-84.3486573
55063000900,La Crosse County,Wisconsin,WI,1.391,-0.595,Urban,3742,15.9,50900.0,55063000900,43.7905981,-91.2449232
51660000101,Harrisonburg city,Virginia,VA,1.39,-0.382,Urban,4345,18.0,45850.0,51660000101,38.4542657,-78.8556932
25017333300,Middlesex County,Massachusetts,MA,1.39,-0.864,Urban,4063,5.8,86019.0,25017333300,42.4707641,-71.152055
6013329000,Contra Costa County,California,CA,1.388,-0.812,Urban,6309,2.2,91313.0,06013329000,37.9947835,-122.0338473
34029723300,Ocean County,New Jersey,NJ,1.387,-0.645,Urban,6681,11.0,76363.0,34029723300,39.9594148,-74.1398771
23005003000,Cumberland County,Maine,ME,1.386,-0.543,Urban,6499,14.5,64058.0,23005003000,43.6360098,-70.3244028
5045031003,Faulkner County,Arkansas,AR,1.384,0.013,Urban,2269,26.8,54167.0,05045031003,35.0567697,-92.5057475
6037402402,Los Angeles County,California,CA,1.381,-0.799,Urban,7076,19.3,62957.0,06037402402,34.0546463,-117.7866816
39049009410,Franklin County,Ohio,OH,1.38,0.033,Urban,2874,14.5,56087.0,39049009410,39.9112865,-82.8572832
48121020503,Denton County,Texas,TX,1.378,-0.411,Urban,5726,22.3,62829.0,48121020503,33.2455592,-97.1250549
34023007103,Middlesex County,New Jersey,NJ,1.378,-0.643,Urban,4559,13.2,59612.0,34023007103,40.4428888,-74.3443138
42031160102,Clarion County,Pennsylvania,PA,1.377,-0.391,Urban,5062,23.1,64246.0,42031160102,41.2177186,-79.2782561
42101035702,Philadelphia County,Pennsylvania,PA,1.375,-0.363,Urban,4405,25.3,40795.0,42101035702,40.1130914,-75.0374316
16001001700,Ada County,Idaho,ID,1.374,-0.609,Urban,5715,25.3,49911.0,16001001700,43.5831863,-116.222969
48201240702,Harris County,Texas,TX,1.373,-0.377,Urban,10524,14.4,55848.0,48201240702,29.9803374,-95.4060929
22055000602,Lafayette Parish,Louisiana,LA,1.373,0.032,Urban,4288,24.9,72872.0,22055000602,30.2264719,-92.0448716
8069001104,Larimer County,Colorado,CO,1.372,-1.165,Urban,5671,22.7,60655.0,08069001104,40.5601578,-105.1246055
28163950100,Yazoo County,Mississippi,MS,1.369,0.556,Rural,7841,21.1,51776.0,28163950100,32.8856198,-90.2104913
48341950200,Moore County,Texas,TX,1.369,0.001,Rural,6671,10.3,55875.0,48341950200,35.808717,-101.9509669
18097355900,Marion County,Indiana,IN,1.369,-0.179,Urban,2533,26.3,56184.0,18097355900,39.756268,-86.1375593
40125500500,Pottawatomie County,Oklahoma,OK,1.368,0.025,Urban,4335,23.3,46831.0,40125500500,35.3501913,-96.9425632
22057020703,Lafourche Parish,Louisiana,LA,1.366,0.037,Urban,5143,20.1,108606.0,22057020703,29.8073494,-90.8117255
4013112512,Maricopa County,Arizona,AZ,1.366,-0.589,Urban,1796,27.2,32036.0,04013112512,33.4488095,-112.1727317
13067030905,Cobb County,Georgia,GA,1.365,-0.334,Urban,7863,16.2,61793.0,13067030905,33.9073366,-84.5863344
53033011300,King County,Washington,WA,1.363,-0.867,Urban,5984,5.7,69697.0,53033011300,47.527369,-122.3448435
48491021503,Williamson County,Texas,TX,1.362,-0.259,Urban,4198,14.7,63367.0,48491021503,30.5230377,-97.6794486
1097003602,Mobile County,Alabama,AL,1.362,0.189,Urban,1532,35.5,39444.0,01097003602,30.6991449,-88.1997383
1077010600,Lauderdale County,Alabama,AL,1.361,0.182,Urban,2740,35.4,39560.0,01077010600,34.8103953,-87.6709633
39095002401,Lucas County,Ohio,OH,1.36,0.063,Urban,3759,43.6,43672.0,39095002401,41.6581543,-83.5980437
40143002500,Tulsa County,Oklahoma,OK,1.36,0.037,Urban,3980,30.6,,40143002500,36.1524544,-95.9907295
28057950300,Itawamba County,Mississippi,MS,1.359,0.2,Urban,3365,26.0,47237.0,28057950300,34.2674954,-88.400177
5027950400,Columbia County,Arkansas,AR,1.359,0.021,Urban,6495,24.0,60625.0,05027950400,33.2854794,-93.2429435
6037201700,Los Angeles County,California,CA,1.358,-0.785,Urban,5093,22.4,66346.0,06037201700,34.0674315,-118.1708887
22063040805,Livingston Parish,Louisiana,LA,1.358,0.045,Urban,5084,23.4,63494.0,22063040805,30.4508392,-90.9347179
54039002100,Kanawha County,West Virginia,WV,1.357,0.385,Urban,4702,22.4,73813.0,54039002100,38.3520951,-81.6683457
36071000100,Orange County,New York,NY,1.355,-0.546,Urban,3525,16.5,59737.0,36071000100,41.5158696,-74.015852
53033029205,King County,Washington,WA,1.355,-0.863,Urban,4602,6.2,78269.0,53033029205,47.3878067,-122.2638518
29077005800,Greene County,Missouri,MO,1.354,-0.208,Urban,5314,38.6,41769.0,29077005800,37.1861699,-93.3327715
53033025701,King County,Washington,WA,1.354,-0.862,Urban,5545,8.9,66526.0,53033025701,47.471605,-122.1913869
39113050303,Montgomery County,Ohio,OH,1.353,0.075,Urban,3932,26.9,42569.0,39113050303,39.6491171,-84.2402546
4019003304,Pima County,Arizona,AZ,1.353,-0.579,Urban,3171,22.5,60231.0,04019003304,32.2228661,-110.8821858
13135050511,Gwinnett County,Georgia,GA,1.353,-0.3,Urban,10270,18.8,56875.0,13135050511,33.9722386,-84.0663115
20173009301,Sedgwick County,Kansas,KS,1.352,-0.239,Urban,5847,9.1,52813.0,20173009301,37.7038546,-97.4251384
53033026200,King County,Washington,WA,1.352,-0.86,Urban,4998,13.4,71228.0,53033026200,47.4591441,-122.2435898
21029020701,Bullitt County,Kentucky,KY,1.35,-0.038,Urban,6134,17.5,57233.0,21029020701,38.0091267,-85.7145819
6047000901,Merced County,California,CA,1.349,-0.455,Rural,3970,14.5,63750.0,06047000901,37.203588,-120.5697813
13089023113,DeKalb County,Georgia,GA,1.349,-0.316,Urban,3187,31.1,41991.0,13089023113,33.7788335,-84.2562785
13121011900,Fulton County,Georgia,GA,1.348,-0.303,Urban,2934,35.3,31827.0,13121011900,33.7538839,-84.3825135
6059076102,Orange County,California,CA,1.347,-0.77,Urban,7487,19.6,60625.0,06059076102,33.78409,-117.8916704
18053000800,Grant County,Indiana,IN,1.347,-0.184,Urban,6967,31.6,41386.0,18053000800,40.5126404,-85.6602842
37133002400,Onslow County,North Carolina,NC,1.346,-0.313,Urban,6283,23.7,38818.0,37133002400,34.740898,-77.3129985
47125101202,Montgomery County,Tennessee,TN,1.343,-0.079,Urban,3767,19.5,49934.0,47125101202,36.5871778,-87.4385433
24045010502,Wicomico County,Maryland,MD,1.343,-0.451,Urban,8875,26.9,45263.0,24045010502,38.3419765,-75.5793096
32003003625,Clark County,Nevada,NV,1.339,-0.477,Urban,6727,22.8,58618.0,32003003625,36.2541882,-115.1257999
21111009105,Jefferson County,Kentucky,KY,1.339,0.0,Urban,2985,7.7,51438.0,21111009105,38.129801,-85.7624275
6007000501,Butte County,California,CA,1.338,-0.785,Urban,4333,23.5,95286.0,06007000501,39.7376427,-121.8867987
21117065600,Kenton County,Kentucky,KY,1.338,0.003,Urban,6263,20.2,59453.0,21117065600,38.9992814,-84.5932552
42095011300,Northampton County,Pennsylvania,PA,1.337,-0.343,Urban,4061,23.2,47606.0,42095011300,40.6068827,-75.3386555
5007021101,Benton County,Arkansas,AR,1.337,0.026,Urban,4551,23.0,55127.0,05007021101,36.2084623,-94.512156
25011040800,Franklin County,Massachusetts,MA,1.337,-0.835,Urban,5180,10.6,70625.0,25011040800,42.4542177,-72.6108585
34037371600,Sussex County,New Jersey,NJ,1.336,-0.612,Urban,3019,8.6,64630.0,34037371600,41.1710396,-74.5162623
29201781000,Scott County,Missouri,MO,1.335,0.172,Rural,3935,14.4,51935.0,29201781000,37.0893947,-89.5102872
26077002005,Kalamazoo County,Michigan,MI,1.335,-0.232,Urban,4134,20.4,95543.0,26077002005,42.2134088,-85.6201072
29077003002,Greene County,Missouri,MO,1.335,-0.197,Urban,5057,26.1,45552.0,29077003002,37.1584871,-93.3276457
6085504602,Santa Clara County,California,CA,1.334,-0.752,Urban,2144,3.5,93681.0,06085504602,37.4495304,-121.9940964
13059150300,Clarke County,Georgia,GA,1.334,-0.318,Urban,3302,21.8,113301.0,13059150300,33.9247487,-83.4157339
42091205700,Montgomery County,Pennsylvania,PA,1.33,-0.34,Urban,4554,13.4,68594.0,42091205700,40.1040719,-75.3435504
6065030101,Riverside County,California,CA,1.329,-0.757,Urban,1226,17.3,59476.0,06065030101,33.9971996,-117.3519676
45019003115,Charleston County,South Carolina,SC,1.328,-0.17,Urban,7113,31.0,38370.0,45019003115,32.9798853,-80.0611887
48041002014,Brazos County,Texas,TX,1.323,-0.409,Urban,1768,54.8,118750.0,48041002014,30.5561761,-96.3780551
47037017200,Davidson County,Tennessee,TN,1.323,-0.101,Urban,1335,27.5,39000.0,47037017200,36.1215514,-86.7595945
39027964700,Clinton County,Ohio,OH,1.322,0.06,Urban,5569,12.9,47727.0,39027964700,39.4277068,-83.8285376
6073018609,San Diego County,California,CA,1.319,-0.748,Urban,6133,11.0,64985.0,06073018609,33.2501756,-117.3150563
27037060805,Dakota County,Minnesota,MN,1.318,-0.735,Urban,3261,20.1,88258.0,27037060805,44.7686333,-93.2119363
20045000100,Douglas County,Kansas,KS,1.318,-0.268,Urban,2847,16.3,59632.0,20045000100,39.0090285,-95.2289553
46103011500,Pennington County,South Dakota,SD,1.318,-0.45,Urban,744,26.3,22453.0,46103011500,44.1344511,-103.0932723
27137002000,St. Louis County,Minnesota,MN,1.317,-0.696,Urban,1225,20.8,66364.0,27137002000,46.7761948,-92.1164759
26065004902,Ingham County,Michigan,MI,1.316,-0.225,Urban,3743,35.9,107600.0,26065004902,42.7175293,-84.4416291
5069000502,Jefferson County,Arkansas,AR,1.315,0.063,Urban,3732,23.0,43000.0,05069000502,34.2689057,-92.0292438
47089070300,Jefferson County,Tennessee,TN,1.314,-0.076,Urban,7239,21.5,50338.0,47089070300,36.1445715,-83.4918959
53033030901,King County,Washington,WA,1.313,-0.838,Urban,3606,7.7,71607.0,53033030901,47.2807128,-122.2531121
29095004300,Jackson County,Missouri,MO,1.313,-0.178,Urban,2168,23.5,71346.0,29095004300,39.0777891,-94.57538
13217100800,Newton County,Georgia,GA,1.313,0.077,Rural,9687,17.7,53043.0,13217100800,33.4607699,-83.8782739
13067030412,Cobb County,Georgia,GA,1.312,-0.302,Urban,3776,29.5,46369.0,13067030412,33.9279446,-84.503893
32031002704,Washoe County,Nevada,NV,1.31,-0.45,Urban,4716,17.7,49409.0,32031002704,39.5758966,-119.769284
37179020306,Union County,North Carolina,NC,1.31,-0.273,Urban,6683,24.4,67820.0,37179020306,35.067942,-80.6117025
48437950200,Swisher County,Texas,TX,1.309,0.074,Rural,2016,15.3,53152.0,48437950200,34.6100135,-101.7496792
48113013010,Dallas County,Texas,TX,1.308,-0.373,Urban,4388,22.4,37024.0,48113013010,32.8688147,-96.6802329
37179020701,Union County,North Carolina,NC,1.308,-0.272,Urban,5383,24.2,52039.0,37179020701,35.0177952,-80.4516641
37049961302,Craven County,North Carolina,NC,1.305,-0.32,Urban,5673,18.9,47160.0,37049961302,34.8607675,-76.8418644
55015020304,Calumet County,Wisconsin,WI,1.304,-0.562,Urban,3827,7.5,63385.0,55015020304,44.2396229,-88.3723045
21021930300,Boyle County,Kentucky,KY,1.303,-0.013,Urban,3223,29.2,36000.0,21021930300,37.6417428,-84.7736443
4017960500,Navajo County,Arizona,AZ,1.301,-0.228,Rural,4144,24.4,53640.0,04017960500,34.8941297,-110.448289
45079011303,Richland County,South Carolina,SC,1.295,-0.128,Urban,4919,9.7,51005.0,45079011303,34.0800258,-80.9404466
37081011904,Guilford County,North Carolina,NC,1.294,-0.302,Urban,4265,15.0,45000.0,37081011904,36.1324986,-79.773038
1081041700,Lee County,Alabama,AL,1.291,0.226,Urban,8528,9.3,51566.0,01081041700,32.6313312,-85.3521797
40143001800,Tulsa County,Oklahoma,OK,1.29,0.079,Urban,1899,21.3,55391.0,40143001800,36.1542699,-95.9269671
9009345300,New Haven County,Connecticut,CT,1.29,-0.623,Urban,6455,4.6,75428.0,09009345300,41.4797987,-73.0744088
34035050500,Somerset County,New Jersey,NJ,1.29,-0.585,Urban,3204,8.5,66858.0,34035050500,40.5686897,-74.6321728
39025041102,Clermont County,Ohio,OH,1.29,0.078,Urban,4656,26.3,56667.0,39025041102,39.0762425,-84.2059585
20045000200,Douglas County,Kansas,KS,1.288,-0.251,Urban,6819,29.4,66101.0,20045000200,38.9553017,-95.211845
48113018141,Dallas County,Texas,TX,1.287,-0.36,Urban,3830,22.4,41052.0,48113018141,32.8720402,-96.5276514
29510118100,St. Louis city,Missouri,MO,1.287,-0.002,Urban,1324,24.1,41964.0,29510118100,38.6235565,-90.2538984
28035010300,Forrest County,Mississippi,MS,1.286,0.235,Urban,3510,7.3,46313.0,28035010300,31.3667311,-89.2439289
13051004209,Chatham County,Georgia,GA,1.285,-0.292,Urban,3175,21.6,43672.0,13051004209,31.9726964,-81.126552
17197882702,Will County,Illinois,IL,1.283,-0.373,Urban,3075,18.2,66029.0,17197882702,41.5271036,-88.0961954
1089010301,Madison County,Alabama,AL,1.281,0.235,Urban,8125,11.2,54274.0,01089010301,34.9392227,-86.5836942
42027011100,Centre County,Pennsylvania,PA,1.281,-0.336,Urban,6187,5.8,60438.0,42027011100,40.9141226,-77.7683415
8041004511,El Paso County,Colorado,CO,1.281,-0.8,Rural,6897,11.4,66610.0,08041004511,38.6117809,-104.6756561
37093970101,Hoke County,North Carolina,NC,1.28,-0.288,Urban,8327,22.1,53179.0,37093970101,35.0306868,-79.1911685
26103000700,Marquette County,Michigan,MI,1.28,-0.189,Urban,3462,22.0,65592.0,26103000700,46.5660009,-87.4354659
1101005410,Montgomery County,Alabama,AL,1.279,0.24,Urban,4933,38.0,53500.0,01101005410,32.3466249,-86.2086223
26081010200,Kent County,Michigan,MI,1.279,-0.197,Urban,4137,19.7,55264.0,26081010200,43.2231791,-85.5480728
27053025100,Hennepin County,Minnesota,MN,1.279,-0.706,Urban,2570,5.0,70750.0,27053025100,44.8511691,-93.2260805
37133001102,Onslow County,North Carolina,NC,1.277,-0.271,Urban,4570,8.9,44458.0,37133001102,34.7400089,-77.4743709
29047020603,Clay County,Missouri,MO,1.277,-0.174,Urban,3492,7.1,55323.0,29047020603,39.1875089,-94.5055514
48201532501,Harris County,Texas,TX,1.277,-0.319,Urban,8895,12.0,60118.0,48201532501,29.8876598,-95.5156503
10003014000,New Castle County,Delaware,DE,1.276,-0.242,Urban,5276,15.3,56707.0,10003014000,39.6859213,-75.6924475
47091956100,Johnson County,Tennessee,TN,1.275,0.269,Rural,4161,19.4,43792.0,47091956100,36.4201518,-81.9235258
48367140101,Parker County,Texas,TX,1.275,-0.254,Urban,4178,13.5,56477.0,48367140101,32.7538452,-97.75567
18141010400,St. Joseph County,Indiana,IN,1.275,-0.106,Urban,3287,14.2,53108.0,18141010400,41.6556576,-86.1469272
6013317000,Contra Costa County,California,CA,1.274,-0.744,Urban,2144,10.1,81250.0,06013317000,38.0176878,-122.1262123
53033032103,King County,Washington,WA,1.272,-0.812,Urban,4280,15.1,77244.0,53033032103,47.5388094,-122.0482835
51153901602,Prince William County,Virginia,VA,1.271,-0.507,Urban,7539,8.7,75536.0,51153901602,38.7964637,-77.4982233
22003950100,Allen Parish,Louisiana,LA,1.271,0.395,Rural,5115,14.6,47206.0,22003950100,30.6731894,-92.912636
35049000800,Santa Fe County,New Mexico,NM,1.27,-0.4,Urban,2987,25.5,86852.0,35049000800,35.6804646,-105.9703845
37133002202,Onslow County,North Carolina,NC,1.27,-0.267,Urban,5081,25.2,39333.0,37133002202,34.7456307,-77.3655447
21151011302,Madison County,Kentucky,KY,1.269,0.057,Urban,4619,22.1,56655.0,21151011302,37.5704476,-84.2719293
13029920303,Bryan County,Georgia,GA,1.267,-0.29,Urban,5140,21.3,54773.0,13029920303,31.9388503,-81.3220146
48439100602,Tarrant County,Texas,TX,1.266,-0.221,Urban,3759,10.3,60868.0,48439100602,32.7756834,-97.4353207
1055010401,Etowah County,Alabama,AL,1.266,0.23,Urban,3471,23.6,46085.0,01055010401,33.9635356,-86.0419345
1089002502,Madison County,Alabama,AL,1.265,0.244,Urban,3082,31.5,39583.0,01089002502,34.6781595,-86.5938685
51700032124,Newport News city,Virginia,VA,1.265,-0.293,Urban,3874,8.4,66250.0,51700032124,37.1575736,-76.5320154
49005001001,Cache County,Utah,UT,1.265,-0.95,Urban,3026,12.6,59853.0,49005001001,41.7204166,-111.8535736
48029181716,Bexar County,Texas,TX,1.262,-0.377,Urban,7342,10.1,48354.0,48029181716,29.5080917,-98.6954648
26081000100,Kent County,Michigan,MI,1.262,-0.187,Urban,2213,10.5,53611.0,26081000100,43.0253597,-85.6473949
29095013410,Jackson County,Missouri,MO,1.261,-0.146,Urban,3438,13.3,48229.0,29095013410,38.8498514,-94.5104058
24510272003,Baltimore city,Maryland,MD,1.26,-0.222,Urban,5817,10.7,77813.0,24510272003,39.3633286,-76.6854724
22061960300,Lincoln Parish,Louisiana,LA,1.26,0.102,Urban,5445,37.3,26645.0,22061960300,32.5431241,-92.7070047
48113010000,Dallas County,Texas,TX,1.259,-0.343,Urban,11780,20.5,70227.0,48113010000,32.8114428,-96.8620144
5143010200,Washington County,Arkansas,AR,1.259,0.125,Urban,6832,26.7,46875.0,05143010200,36.1983825,-94.1126739
48027021201,Bell County,Texas,TX,1.258,-0.375,Urban,3021,8.2,56098.0,48027021201,31.1156501,-97.3891376
22055001903,Lafayette Parish,Louisiana,LA,1.257,0.102,Urban,6219,17.3,44500.0,22055001903,30.1963602,-92.1170561
4013111700,Maricopa County,Arizona,AZ,1.257,-0.525,Urban,5647,24.2,72689.0,04013111700,33.4729707,-112.05638
53033025601,King County,Washington,WA,1.257,-0.804,Urban,4941,6.7,79663.0,53033025601,47.4827528,-122.1748691
6097153200,Sonoma County,California,CA,1.255,-0.701,Urban,7522,10.6,65612.0,06097153200,38.38805,-122.7284014
36027220100,Dutchess County,New York,NY,1.255,-0.503,Urban,6011,17.3,56127.0,36027220100,41.7093427,-73.9367822
9001211200,Fairfield County,Connecticut,CT,1.255,-0.605,Urban,6046,12.0,84861.0,09001211200,41.417986,-73.4573799
26155030600,Shiawassee County,Michigan,MI,1.254,-0.154,Urban,1896,30.9,37019.0,26155030600,42.9980354,-84.1762226
26065006500,Ingham County,Michigan,MI,1.252,-0.188,Urban,3425,30.2,41771.0,26065006500,42.7349992,-84.5302278
5131000700,Sebastian County,Arkansas,AR,1.252,0.125,Urban,6240,40.2,37115.0,05131000700,35.3806536,-94.3878611
39095008700,Lucas County,Ohio,OH,1.251,0.128,Urban,8135,21.9,65400.0,39095008700,41.6433071,-83.7093317
48303001708,Lubbock County,Texas,TX,1.251,-0.265,Urban,2406,19.0,38804.0,48303001708,33.5424891,-101.9285479
29097010300,Jasper County,Missouri,MO,1.251,-0.139,Urban,6746,26.3,59133.0,29097010300,37.1226844,-94.4632261
25017341902,Middlesex County,Massachusetts,MA,1.25,-0.781,Urban,8120,17.0,84522.0,25017341902,42.4372851,-71.0318059
22055001902,Lafayette Parish,Louisiana,LA,1.249,0.106,Urban,7152,22.0,62946.0,22055001902,30.2231858,-92.1082894
6107002203,Tulare County,California,CA,1.249,-0.693,Urban,4363,10.1,58852.0,06107002203,36.2182393,-119.3755911
5143010302,Washington County,Arkansas,AR,1.248,0.132,Urban,13557,16.5,52195.0,05143010302,36.165026,-94.1094502
6013380000,Contra Costa County,California,CA,1.247,-0.728,Urban,5706,9.6,75156.0,06013380000,37.8978024,-122.3577078
22003950200,Allen Parish,Louisiana,LA,1.247,0.088,Urban,5326,29.6,50417.0,22003950200,30.8585444,-92.6232761
51710000201,Norfolk city,Virginia,VA,1.246,-0.277,Urban,2742,11.8,55625.0,51710000201,36.944033,-76.2375183
35001004735,Bernalillo County,New Mexico,NM,1.245,-0.404,Urban,2239,18.7,39250.0,35001004735,35.0490462,-106.7122413
13135050320,Gwinnett County,Georgia,GA,1.243,-0.235,Urban,5598,18.2,37969.0,13135050320,33.9265031,-84.2039184
28035010600,Forrest County,Mississippi,MS,1.242,0.583,Rural,8006,26.9,54480.0,28035010600,31.0822194,-89.2554966
51700032123,Newport News city,Virginia,VA,1.241,-0.278,Urban,5680,12.8,63618.0,51700032123,37.1721258,-76.5372835
18097380402,Marion County,Indiana,IN,1.24,-0.102,Urban,4604,24.3,47022.0,18097380402,39.6991159,-86.0949589
25017321300,Middlesex County,Massachusetts,MA,1.238,-0.774,Urban,7497,4.8,81458.0,25017321300,42.333163,-71.552731
48091310502,Comal County,Texas,TX,1.238,-0.339,Urban,4443,13.5,55337.0,48091310502,29.7061564,-98.076739
4013060903,Maricopa County,Arizona,AZ,1.237,-0.513,Urban,4983,20.1,47440.0,04013060903,33.60171,-112.3203341
47179060502,Washington County,Tennessee,TN,1.236,0.005,Urban,5992,23.5,60683.0,47179060502,36.2825531,-82.4089638
28143950100,Tunica County,Mississippi,MS,1.234,0.629,Rural,6044,12.0,42881.0,28143950100,34.5464572,-90.421177
